<?xml version="1.0" encoding="UTF-8"?>
<gpx version="1.0" creator="GPSBabel - http://www.gpsbabel.org" xmlns="http://www.topografix.com/GPX/1/0">
  <time>2015-08-03T10:38:13.852Z</time>
  <bounds minlat="41.729305200" minlon="37.596588100" maxlat="54.194583400" maxlon="44.803619400"/>
  <wpt lat="42.746823100" lon="44.624662400">
    <ele>0.000000</ele>
    <name>Верхний Ларс-Казбеги</name>
    <cmt>http://sakartvelotour.com/10открыт 6-22. за день ~50 машин. время оформления 2-3 часа. работает с 6 до 18. мотоциклистов пропускают без очереди. на грузинской стороне быстрее, русские мурыжат.</cmt>
    <desc>http://sakartvelotour.com/10открыт 6-22. за день ~50 машин. время оформления 2-3 часа. работает с 6 до 18. мотоциклистов пропускают без очереди. на грузинской стороне быстрее, русские мурыжат.</desc>
  </wpt>
  <wpt lat="42.612991000" lon="44.102811800">
    <ele>0.000000</ele>
    <name>Рок - Нижний Зарамаг</name>
    <cmt>Рок - Нижний Зарамаг</cmt>
    <desc>Рок - Нижний Зарамаг</desc>
  </wpt>
  <wpt lat="43.394087200" lon="40.008602100">
    <ele>0.000000</ele>
    <name>Адлер</name>
    <cmt>Адлер</cmt>
    <desc>Адлер</desc>
  </wpt>
  <wpt lat="43.018956500" lon="44.657363900">
    <ele>0.000000</ele>
    <name>ставр.-владквкз - 400км</name>
    <cmt>ставр.-владквкз - 400км</cmt>
    <desc>ставр.-владквкз - 400км</desc>
  </wpt>
  <wpt lat="45.041750300" lon="41.980819700">
    <ele>0.000000</ele>
    <name>Воронеж-Ставр - 900км</name>
    <cmt>Воронеж-Ставр - 900км</cmt>
    <desc>Воронеж-Ставр - 900км</desc>
  </wpt>
  <wpt lat="51.498690900" lon="40.528034500">
    <ele>0.000000</ele>
    <name>Спб-Воронеж 1250км</name>
    <cmt>Спб-Воронеж 1250км</cmt>
    <desc>Спб-Воронеж 1250км</desc>
  </wpt>
  <wpt lat="54.194583400" lon="37.596588100">
    <ele>0.000000</ele>
    <name>Спб-Тула (900 км)</name>
    <cmt>Спб-Тула (900 км)</cmt>
    <desc>Спб-Тула (900 км)</desc>
  </wpt>
  <wpt lat="47.222366200" lon="39.653778100">
    <ele>0.000000</ele>
    <name>Воронеж-Ростов (560км)</name>
    <cmt>Воронеж-Ростов (560км)</cmt>
    <desc>Воронеж-Ростов (560км)</desc>
  </wpt>
  <wpt lat="51.388950400" lon="37.972623500">
    <ele>0.000000</ele>
    <name>Тула-Воронеж (350км)</name>
    <cmt>Тула-Воронеж (350км)</cmt>
    <desc>Тула-Воронеж (350км)</desc>
  </wpt>
  <wpt lat="41.729305200" lon="44.803619400">
    <ele>0.000000</ele>
    <name>Влад.-Тбилиси (200км)</name>
    <cmt>Влад.-Тбилиси (200км)</cmt>
    <desc>Влад.-Тбилиси (200км)</desc>
  </wpt>
</gpx>
