<?xml version="1.0" encoding="UTF-8"?>
<gpx version="1.0" creator="GPSBabel - http://www.gpsbabel.org" xmlns="http://www.topografix.com/GPX/1/0">
  <time>2015-08-03T10:38:14.160Z</time>
  <bounds minlat="43.026902100" minlon="35.380893100" maxlat="52.618344400" maxlon="44.688271000"/>
  <wpt lat="45.103516400" lon="35.437002200">
    <ele>0.000000</ele>
    <name>Ангел +* BB 2.5к</name>
    <cmt>улица Грина 2, 98181 Береговое, Крым</cmt>
    <desc>улица Грина 2, 98181 Береговое, Крым</desc>
  </wpt>
  <wpt lat="45.036443400" lon="35.381206900">
    <ele>0.000000</ele>
    <name>Бульварная Горка +* BB 3.8k</name>
    <cmt>5 ulitsa 3-go Kavaleriyskogo Korpusa, 98000 Феодосия, Крым&lt;br&gt;PP огороженная территория</cmt>
    <desc>5 ulitsa 3-go Kavaleriyskogo Korpusa, 98000 Феодосия, Крым&lt;br&gt;PP огороженная территория</desc>
  </wpt>
  <wpt lat="45.086066200" lon="35.423269300">
    <ele>0.000000</ele>
    <name>KamaPol 0* BB 1.8-2.5k</name>
    <cmt>Улица Высоцкого 3, 98111 Феодосия, Крым&lt;br&gt;PP</cmt>
    <desc>Улица Высоцкого 3, 98111 Феодосия, Крым&lt;br&gt;PP</desc>
  </wpt>
  <wpt lat="45.056019600" lon="35.387805100">
    <ele>0.000000</ele>
    <name>Мечта 0* BB 1.2-2.5k</name>
    <cmt>Улица Федька 54, 95000 Феодосия, Крым&lt;br&gt;PP</cmt>
    <desc>Улица Федька 54, 95000 Феодосия, Крым&lt;br&gt;PP</desc>
  </wpt>
  <wpt lat="45.036885000" lon="35.380893100">
    <ele>0.000000</ele>
    <name>Отель Феодосия 3* BB 2.4k</name>
    <cmt>Улица Пушкина 11, 98100 Феодосия, Крым&lt;br&gt;PP</cmt>
    <desc>Улица Пушкина 11, 98100 Феодосия, Крым&lt;br&gt;PP</desc>
  </wpt>
  <wpt lat="43.697169100" lon="40.191571700">
    <ele>0.000000</ele>
    <name>Горный Хрусталь 3* BB 2.5-4k</name>
    <cmt>Фундучный Переулок, 12, Красная Поляна, Россия</cmt>
    <desc>Фундучный Переулок, 12, Красная Поляна, Россия</desc>
  </wpt>
  <wpt lat="43.686095000" lon="40.221644600">
    <ele>0.000000</ele>
    <name>Спа Отель Беларусь +3* BB 2-4k</name>
    <cmt>Посёлок Красная Поляна, улица Калиновая 18, Красная Поляна, Россия, &lt;br&gt;PP, Своя огромная территория с пацаками на входе&lt;br&gt;за 4К Люкс</cmt>
    <desc>Посёлок Красная Поляна, улица Калиновая 18, Красная Поляна, Россия, &lt;br&gt;PP, Своя огромная территория с пацаками на входе&lt;br&gt;за 4К Люкс</desc>
  </wpt>
  <wpt lat="43.685871900" lon="40.199277700">
    <ele>0.000000</ele>
    <name>Гостиница Олимпиа +* BB 3k </name>
    <cmt>Улица Ачишховская 30, Красная Поляна, Россия, &lt;br&gt;PPL (за заборои и откатными воротами)</cmt>
    <desc>Улица Ачишховская 30, Красная Поляна, Россия, &lt;br&gt;PPL (за заборои и откатными воротами)</desc>
  </wpt>
  <wpt lat="43.683733500" lon="40.203090500">
    <ele>0.000000</ele>
    <name>Ом Дом Отель +* BB 4.6k</name>
    <cmt>Комсомольский Переулок 1, Красная Поляна, Россия, &lt;br&gt;PP&lt;br&gt;интересный дизайн</cmt>
    <desc>Комсомольский Переулок 1, Красная Поляна, Россия, &lt;br&gt;PP&lt;br&gt;интересный дизайн</desc>
  </wpt>
  <wpt lat="43.686991100" lon="40.200817300">
    <ele>0.000000</ele>
    <name>Гостевой дом Велья +* BB 1.5-2.5</name>
    <cmt>Улица Заповедная 78, Красная Поляна, Россия, &lt;br&gt;Вроде сбоку есть забор-ворота-внутренняя территория</cmt>
    <desc>Улица Заповедная 78, Красная Поляна, Россия, &lt;br&gt;Вроде сбоку есть забор-ворота-внутренняя территория</desc>
  </wpt>
  <wpt lat="45.044299300" lon="41.970254500">
    <ele>0.000000</ele>
    <name>Гостиница Континент 4* BB 4k</name>
    <cmt>Улица Дзержинского 114, Ставрополь, Россия, &lt;br&gt;Есть какая-то территория с жопки гостиницы, но надо смотреть</cmt>
    <desc>Улица Дзержинского 114, Ставрополь, Россия, &lt;br&gt;Есть какая-то территория с жопки гостиницы, но надо смотреть</desc>
  </wpt>
  <wpt lat="45.077140300" lon="42.014089800">
    <ele>0.000000</ele>
    <name>!Guest House PARTIA +* BB 1.7-2.5</name>
    <cmt>Prigorodnaya Str., 436, Ставрополь, Россия, &lt;br&gt;Частный сектор. Зазаборье</cmt>
    <desc>Prigorodnaya Str., 436, Ставрополь, Россия, &lt;br&gt;Частный сектор. Зазаборье</desc>
  </wpt>
  <wpt lat="45.066428400" lon="42.013658000">
    <ele>0.000000</ele>
    <name>Ре-омтГ Кмпл Онегин +* BB 3.5-4.5</name>
    <cmt>Михайловское шоссе 28, Ставрополь, Россия, &lt;br&gt;вроде есть какое-то зазаборье</cmt>
    <desc>Михайловское шоссе 28, Ставрополь, Россия, &lt;br&gt;вроде есть какое-то зазаборье</desc>
  </wpt>
  <wpt lat="45.032874300" lon="42.006976600">
    <ele>0.000000</ele>
    <name>VIP-отель 2* BB 1.8-3k</name>
    <cmt>Улица серова 462, Ставрополь, Россия, &lt;br&gt;сбоку зашлакбаумье&lt;br&gt;3к - люкс</cmt>
    <desc>Улица серова 462, Ставрополь, Россия, &lt;br&gt;сбоку зашлакбаумье&lt;br&gt;3к - люкс</desc>
  </wpt>
  <wpt lat="45.054352100" lon="41.967459500">
    <ele>0.000000</ele>
    <name>Гостиница Динамо +* BB 1.8-3.5k</name>
    <cmt>Улица Вавилова 40-А, Ставрополь, Россия, &lt;br&gt;формальное незапираемое зазаборье&lt;br&gt;3.5к - люкс</cmt>
    <desc>Улица Вавилова 40-А, Ставрополь, Россия, &lt;br&gt;формальное незапираемое зазаборье&lt;br&gt;3.5к - люкс</desc>
  </wpt>
  <wpt lat="51.669983500" lon="39.186510400">
    <ele>0.000000</ele>
    <name>(X)Премьер-Отель +* BB 2,8-3k</name>
    <cmt>Бакунинский переулок,13, Воронеж, Россия, &lt;br&gt;БЕЗ ПАРКОВКИ&lt;br&gt;3л - люкс</cmt>
    <desc>Бакунинский переулок,13, Воронеж, Россия, &lt;br&gt;БЕЗ ПАРКОВКИ&lt;br&gt;3л - люкс</desc>
  </wpt>
  <wpt lat="51.665521800" lon="39.219163700">
    <ele>0.000000</ele>
    <name>Версаль +* BB 3.5k</name>
    <cmt>Детский переулок 26, Воронеж, Россия, &lt;br&gt;у комплекса есть подземный паркинг, а у отеля - хз</cmt>
    <desc>Детский переулок 26, Воронеж, Россия, &lt;br&gt;у комплекса есть подземный паркинг, а у отеля - хз</desc>
  </wpt>
  <wpt lat="51.667400000" lon="39.208941800">
    <ele>0.000000</ele>
    <name>Дегас + Лайт</name>
    <cmt>Отель Дегас Лайт&lt;br&gt;Улица Пятницкого 65А, подъезд 3</cmt>
    <desc>Отель Дегас Лайт&lt;br&gt;Улица Пятницкого 65А, подъезд 3</desc>
  </wpt>
  <wpt lat="51.678408200" lon="39.212814900">
    <ele>0.000000</ele>
    <name>Бронзовый Кабан 4* BB 3.5-4k</name>
    <cmt>Кольцовская Улица 1Г , Воронеж, Россия, &lt;br&gt;PPL</cmt>
    <desc>Кольцовская Улица 1Г , Воронеж, Россия, &lt;br&gt;PPL</desc>
  </wpt>
  <wpt lat="51.657172900" lon="39.191923100">
    <ele>0.000000</ele>
    <name>Holiday Inn Express 3* BB 3.5-4k</name>
    <cmt>Улица Кирова 9/1, Воронеж, Россия&lt;br&gt;PPL</cmt>
    <desc>Улица Кирова 9/1, Воронеж, Россия&lt;br&gt;PPL</desc>
  </wpt>
  <wpt lat="51.673744500" lon="39.182798300">
    <ele>0.000000</ele>
    <name>Отель Hampton by Hilton 4* BB 3.2-3.7k</name>
    <cmt>Донбасская Улица 12Б, Воронеж, Россия, &lt;br&gt;PP</cmt>
    <desc>Донбасская Улица 12Б, Воронеж, Россия, &lt;br&gt;PP</desc>
  </wpt>
  <wpt lat="51.711809000" lon="39.141623700">
    <ele>0.000000</ele>
    <name>!Токио +* BB 2.8-3.5k</name>
    <cmt>Antonova-Ovseenko Street 25А, Воронеж, Россия, &lt;br&gt;рядом платная автостоянка</cmt>
    <desc>Antonova-Ovseenko Street 25А, Воронеж, Россия, &lt;br&gt;рядом платная автостоянка</desc>
  </wpt>
  <wpt lat="51.732022000" lon="39.177790600">
    <ele>0.000000</ele>
    <name>Амакс Парк Отель 3* BB 3.4k</name>
    <cmt>Московский Проспект 145, Воронеж, Россия, &lt;br&gt;зазаборье с будкой и шлакбаумом</cmt>
    <desc>Московский Проспект 145, Воронеж, Россия, &lt;br&gt;зазаборье с будкой и шлакбаумом</desc>
  </wpt>
  <wpt lat="47.223778000" lon="39.755897800">
    <ele>0.000000</ele>
    <name>!Отель Ани +* BB 3k</name>
    <cmt>Улица 5 Линия 55/84, Ростов-на-Дону, Россия, &lt;br&gt;частный сектор, своя территория</cmt>
    <desc>Улица 5 Линия 55/84, Ростов-на-Дону, Россия, &lt;br&gt;частный сектор, своя территория</desc>
  </wpt>
  <wpt lat="47.233409600" lon="39.690484100">
    <ele>0.000000</ele>
    <name>!Дон Мажор 3* BB 2.5k</name>
    <cmt>улица Козлова 42, Ростов-на-Дону, Россия, &lt;br&gt;ЧС.&lt;br&gt;полулюкс 2,8к</cmt>
    <desc>улица Козлова 42, Ростов-на-Дону, Россия, &lt;br&gt;ЧС.&lt;br&gt;полулюкс 2,8к</desc>
  </wpt>
  <wpt lat="47.204423700" lon="39.766259200">
    <ele>0.000000</ele>
    <name>!Гостиница Аверон +* BB 3.3-4k</name>
    <cmt>Левобережная улица 16, Ростов-на-Дону, Россия, &lt;br&gt;своя территория с конурой и шлакбаумом</cmt>
    <desc>Левобережная улица 16, Ростов-на-Дону, Россия, &lt;br&gt;своя территория с конурой и шлакбаумом</desc>
  </wpt>
  <wpt lat="47.232852300" lon="39.763150500">
    <ele>0.000000</ele>
    <name>Отель Байрон 3* BB 2.2-2.7</name>
    <cmt>Базарная Площадь 4Б, Ростов-на-Дону, Россия, &lt;br&gt;Вроде своя терр.</cmt>
    <desc>Базарная Площадь 4Б, Ростов-на-Дону, Россия, &lt;br&gt;Вроде своя терр.</desc>
  </wpt>
  <wpt lat="47.240339100" lon="39.702578200">
    <ele>0.000000</ele>
    <name>$Гостиница Звезда 3* BB 3.3k</name>
    <cmt>Соборный переулок 104, Ростов-на-Дону, Россия, &lt;br&gt;PPL платная 300р, но хз где и как</cmt>
    <desc>Соборный переулок 104, Ростов-на-Дону, Россия, &lt;br&gt;PPL платная 300р, но хз где и как</desc>
  </wpt>
  <wpt lat="47.222246000" lon="39.739206400">
    <ele>0.000000</ele>
    <name>!Гостевой дом Сказка +* BB 1.9-2.5</name>
    <cmt>Улица Красных Зорь 117, Ростов-на-Дону, Россия, &lt;br&gt;ЧС.&lt;br&gt;2,5 -  полулюкс</cmt>
    <desc>Улица Красных Зорь 117, Ростов-на-Дону, Россия, &lt;br&gt;ЧС.&lt;br&gt;2,5 -  полулюкс</desc>
  </wpt>
  <wpt lat="47.218088800" lon="39.615916000">
    <ele>0.000000</ele>
    <name>?!Гостиница Альфа -* BB 1.3k</name>
    <cmt>Улица Правовая 78/10, Ростов-на-Дону, Россия, &lt;br&gt;ЧС. вроде внутрення территория</cmt>
    <desc>Улица Правовая 78/10, Ростов-на-Дону, Россия, &lt;br&gt;ЧС. вроде внутрення территория</desc>
  </wpt>
  <wpt lat="47.226091300" lon="39.691873500">
    <ele>0.000000</ele>
    <name>!Mart Guest House 0+* ВВ 2-2,5к</name>
    <cmt>Gvardeysky Pereulok 12, Ростов-на-Дону, Россия, &lt;br&gt;ЧС. зазаборье с воротами</cmt>
    <desc>Gvardeysky Pereulok 12, Ростов-на-Дону, Россия, &lt;br&gt;ЧС. зазаборье с воротами</desc>
  </wpt>
  <wpt lat="47.274495800" lon="39.763263200">
    <ele>0.000000</ele>
    <name>Отель Белладжио 4* BB 3.6-4</name>
    <cmt>Улица 50-летия Ростсельмаша 7В, Ростов-на-Дону, Россия, &lt;br&gt;есть какая-то внутр. терр. но хз что</cmt>
    <desc>Улица 50-летия Ростсельмаша 7В, Ростов-на-Дону, Россия, &lt;br&gt;есть какая-то внутр. терр. но хз что</desc>
  </wpt>
  <wpt lat="47.225105900" lon="39.703672500">
    <ele>0.000000</ele>
    <name>Hotel Mister X +* ВВ 2,6к</name>
    <cmt>Улица Максима Горького 89, Ростов-на-Дону, Россия, &lt;br&gt;ЧС закуток</cmt>
    <desc>Улица Максима Горького 89, Ростов-на-Дону, Россия, &lt;br&gt;ЧС закуток</desc>
  </wpt>
  <wpt lat="47.246872500" lon="39.797118000">
    <ele>0.000000</ele>
    <name>Отель Визит 3* ВВ 2-3,5Л</name>
    <cmt>Улица Щедрина 29, Ростов-на-Дону, Россия, &lt;br&gt;неюольшое зазаборье. не совсем для машин. но мот могут и пустить</cmt>
    <desc>Улица Щедрина 29, Ростов-на-Дону, Россия, &lt;br&gt;неюольшое зазаборье. не совсем для машин. но мот могут и пустить</desc>
  </wpt>
  <wpt lat="47.222934600" lon="39.707465200">
    <ele>0.000000</ele>
    <name>Отель Континенталь 3* ВВ 2,7-5</name>
    <cmt>Budenovsky Prospekt 42, Ростов-на-Дону, Россия, &lt;br&gt;вроде парковка за воротами</cmt>
    <desc>Budenovsky Prospekt 42, Ростов-на-Дону, Россия, &lt;br&gt;вроде парковка за воротами</desc>
  </wpt>
  <wpt lat="43.028510000" lon="44.680487200">
    <ele>0.000000</ele>
    <name>Hotel Imperial 4* BB 4.5k</name>
    <cmt>Prospekt Mira 19, Владикавказ, Россия, &lt;br&gt;PPL$ 150rur</cmt>
    <desc>Prospekt Mira 19, Владикавказ, Россия, &lt;br&gt;PPL$ 150rur</desc>
  </wpt>
  <wpt lat="43.026902100" lon="44.674535400">
    <ele>0.000000</ele>
    <name>Гостиница Владикавказ 3* BB 2.8k</name>
    <cmt>Улица Коцоева 75, Владикавказ, Россия, &lt;br&gt;PPL$ (по спутнику фиг че у них есть)</cmt>
    <desc>Улица Коцоева 75, Владикавказ, Россия, &lt;br&gt;PPL$ (по спутнику фиг че у них есть)</desc>
  </wpt>
  <wpt lat="43.037013100" lon="44.688271000">
    <ele>0.000000</ele>
    <name>Кадгарон Отель 0* ВВ 2-4Л</name>
    <cmt>Улица Маркова 20, Владикавказ, Россия, &lt;br&gt;PPL$ 50rur</cmt>
    <desc>Улица Маркова 20, Владикавказ, Россия, &lt;br&gt;PPL$ 50rur</desc>
  </wpt>
  <wpt lat="43.450115000" lon="43.578895900">
    <ele>0.000000</ele>
    <name>Корона 3* BB 2.5-3.5L</name>
    <cmt>Улица Балкарова 6, Нальчик, Россия, &lt;br&gt;PPL. условный закуток</cmt>
    <desc>Улица Балкарова 6, Нальчик, Россия, &lt;br&gt;PPL. условный закуток</desc>
  </wpt>
  <wpt lat="43.474866800" lon="43.599447000">
    <ele>0.000000</ele>
    <name>?ГК Трек 2* B$ 3.1k</name>
    <cmt>Парк Культуры и отдыха, Нальчик, Россия, &lt;br&gt;PPL они в парке - модет огорожены. по снимку не понять</cmt>
    <desc>Парк Культуры и отдыха, Нальчик, Россия, &lt;br&gt;PPL они в парке - модет огорожены. по снимку не понять</desc>
  </wpt>
  <wpt lat="43.466313600" lon="43.585826800">
    <ele>0.000000</ele>
    <name>Спа Отель Синдика 4* BB 4.3</name>
    <cmt>Улица Пирогова 1, Нальчик, Россия, &lt;br&gt;PPL . но надо смотреть</cmt>
    <desc>Улица Пирогова 1, Нальчик, Россия, &lt;br&gt;PPL . но надо смотреть</desc>
  </wpt>
  <wpt lat="43.467939100" lon="43.588187100">
    <ele>0.000000</ele>
    <name>Гранд Кавказ Отель 3* ВВ 3,6</name>
    <cmt>Улица Тарчокова 2, Нальчик, Россия, &lt;br&gt;PPL. своя большая терр</cmt>
    <desc>Улица Тарчокова 2, Нальчик, Россия, &lt;br&gt;PPL. своя большая терр</desc>
  </wpt>
  <wpt lat="43.447324600" lon="43.648241800">
    <ele>0.000000</ele>
    <name>Старый Двор -* BB 2.2-4.3hl</name>
    <cmt>улица Мишидж 55, Нальчик, Россия, &lt;br&gt;PPL</cmt>
    <desc>улица Мишидж 55, Нальчик, Россия, &lt;br&gt;PPL</desc>
  </wpt>
  <wpt lat="43.457922800" lon="43.571034400">
    <ele>0.000000</ele>
    <name>Син Дон 2* BS 4kL</name>
    <cmt>Улица Биттирова 141, Нальчик, Россия, &lt;br&gt;PPL. парковка у домиков</cmt>
    <desc>Улица Биттирова 141, Нальчик, Россия, &lt;br&gt;PPL. парковка у домиков</desc>
  </wpt>
  <wpt lat="52.118223300" lon="39.187738900">
    <ele>0.000000</ele>
    <name>!мотель Русь ?* В? 1,7к</name>
    <cmt>впритык- охраняемая стоянка&lt;br&gt;Телефон: 8-920-405-55-55, 8-920-462-44-44, 8-920-400-75-74Км по трассе: 460GPS долгота: 39.178812GPS широта: 52.103077</cmt>
    <desc>впритык- охраняемая стоянка&lt;br&gt;Телефон: 8-920-405-55-55, 8-920-462-44-44, 8-920-400-75-74Км по трассе: 460GPS долгота: 39.178812GPS широта: 52.103077</desc>
  </wpt>
  <wpt lat="52.618212500" lon="38.497775500">
    <ele>0.000000</ele>
    <name>Гостиница Советская 49 +* BB 2,5к</name>
    <cmt>Улица Советская 49, Елец, Россия, &lt;br&gt;PPL</cmt>
    <desc>Улица Советская 49, Елец, Россия, &lt;br&gt;PPL</desc>
  </wpt>
  <wpt lat="52.618344400" lon="38.461447700">
    <ele>0.000000</ele>
    <name>Motel Prival +* BB 2-3kL</name>
    <cmt>2 Концевая 23, Елец, Россия, &lt;br&gt;PPL для гостей. похоче ЧС и зазаборье</cmt>
    <desc>2 Концевая 23, Елец, Россия, &lt;br&gt;PPL для гостей. похоче ЧС и зазаборье</desc>
  </wpt>
  <wpt lat="44.038215400" lon="43.079015300">
    <ele>0.000000</ele>
    <name>Пансионат Искра +* B- 2.3-3kL</name>
    <cmt>Улица Карла Маркса 7, Пятигорск, Россия, &lt;br&gt;PPL$ 60rur</cmt>
    <desc>Улица Карла Маркса 7, Пятигорск, Россия, &lt;br&gt;PPL$ 60rur</desc>
  </wpt>
  <wpt lat="44.055630000" lon="43.044782300">
    <ele>0.000000</ele>
    <name>?Ночной квартал 3* BB 2-3.7L</name>
    <cmt>ул. Адмиральского, 6&lt;br&gt;есть заворотье, но пустят ли - хз</cmt>
    <desc>ул. Адмиральского, 6&lt;br&gt;есть заворотье, но пустят ли - хз</desc>
  </wpt>
  <wpt lat="44.047726300" lon="43.065188500">
    <ele>0.000000</ele>
    <name>(X)Golden Hotel 4* BB 3k</name>
    <cmt>Улица Калинина 38 cтр. 1, Пятигорск, Россия, &lt;br&gt;парковка уличная</cmt>
    <desc>Улица Калинина 38 cтр. 1, Пятигорск, Россия, &lt;br&gt;парковка уличная</desc>
  </wpt>
  <wpt lat="44.037368900" lon="43.057396700">
    <ele>0.000000</ele>
    <name>Guest house Alla +* B- 1.4</name>
    <cmt>Universitetskaya 55, Пятигорск, Россия, &lt;br&gt;ЧС. Вроде двор есть</cmt>
    <desc>Universitetskaya 55, Пятигорск, Россия, &lt;br&gt;ЧС. Вроде двор есть</desc>
  </wpt>
  <wpt lat="44.022730100" lon="43.088344000">
    <ele>0.000000</ele>
    <name>Hotel-Sauna Liberty +* В120 2,5-3к</name>
    <cmt>улица Воровского 105, Пятигорск, Ставропольский край, Россия</cmt>
    <desc>улица Воровского 105, Пятигорск, Ставропольский край, Россия</desc>
  </wpt>
  <wpt lat="44.033053400" lon="43.079624200">
    <ele>0.000000</ele>
    <name>АпартОтель Комплимент +* B- 3-3.5L</name>
    <cmt>Улица Партизанская 4, Пятигорск, Россия, &lt;br&gt;зазаборье</cmt>
    <desc>Улица Партизанская 4, Пятигорск, Россия, &lt;br&gt;зазаборье</desc>
  </wpt>
  <wpt lat="44.062875500" lon="43.003422600">
    <ele>0.000000</ele>
    <name>(Х)Hayat Spa Hotel 4* 1,9-2,6HL</name>
    <cmt>Бештаугорское шоссе 161, Пятигорск, Россия, &lt;br&gt;нет парковки</cmt>
    <desc>Бештаугорское шоссе 161, Пятигорск, Россия, &lt;br&gt;нет парковки</desc>
  </wpt>
  <wpt lat="44.064091600" lon="43.080133800">
    <ele>0.000000</ele>
    <name>Затерянный Рай у Машука +* BB 4k</name>
    <cmt>гора Машук, Пятигорск, Россия, &lt;br&gt;своя большая территория</cmt>
    <desc>гора Машук, Пятигорск, Россия, &lt;br&gt;своя большая территория</desc>
  </wpt>
  <wpt lat="44.052861900" lon="42.975927300">
    <ele>0.000000</ele>
    <name>ГД Тольятти 0* В150 1,3к</name>
    <cmt>Улица 9-й Переулок 6, Пятигорск, Россия, &lt;br&gt;ЧС. может есть закуток</cmt>
    <desc>Улица 9-й Переулок 6, Пятигорск, Россия, &lt;br&gt;ЧС. может есть закуток</desc>
  </wpt>
  <wpt lat="44.059706800" lon="43.062165700">
    <ele>0.000000</ele>
    <name>Khantama +* ВВ 3,5-4,5</name>
    <cmt>Ulitsa Ordzhonikidze, 11A, Пятигорск, Россия, &lt;br&gt;низкое зазаборье с конурой</cmt>
    <desc>Ulitsa Ordzhonikidze, 11A, Пятигорск, Россия, &lt;br&gt;низкое зазаборье с конурой</desc>
  </wpt>
  <wpt lat="45.002926700" lon="41.127812900">
    <ele>0.000000</ele>
    <name>RHouse Inn +* BB 2-3.5L</name>
    <cmt>Улица Розы Люксембург 130, Армавир, Россия, &lt;br&gt;есть заворотье, но не путят ли?</cmt>
    <desc>Улица Розы Люксембург 130, Армавир, Россия, &lt;br&gt;есть заворотье, но не путят ли?</desc>
  </wpt>
  <wpt lat="44.967800100" lon="41.140848400">
    <ele>0.000000</ele>
    <name>!Panorama +* B- 1.5k</name>
    <cmt>St. Lavrinenko 172а, Армавир, Россия, &lt;br&gt;ЧС. вроде своя территория. вопрос охраны</cmt>
    <desc>St. Lavrinenko 172а, Армавир, Россия, &lt;br&gt;ЧС. вроде своя территория. вопрос охраны</desc>
  </wpt>
  <wpt lat="44.991592000" lon="41.128944800">
    <ele>0.000000</ele>
    <name>Гранд-отель Classic 4* BB 4.2k</name>
    <cmt>Улица Халтурина 108 А , Армавир, Россия, &lt;br&gt;PPL зазаборье, но без ворот</cmt>
    <desc>Улица Халтурина 108 А , Армавир, Россия, &lt;br&gt;PPL зазаборье, но без ворот</desc>
  </wpt>
  <wpt lat="44.992548000" lon="41.136047200">
    <ele>0.000000</ele>
    <name>!Гостиница Вилла Клаб 4* 3,5-4к</name>
    <cmt>Улица Урицкого 83А, Армавир, Россия, &lt;br&gt;зазаборье с закрытыми воротами</cmt>
    <desc>Улица Урицкого 83А, Армавир, Россия, &lt;br&gt;зазаборье с закрытыми воротами</desc>
  </wpt>
  <wpt lat="44.614438000" lon="40.141038900">
    <ele>0.000000</ele>
    <name>Гостиница Версаль +* BB 4.5k</name>
    <cmt>Улица Хакуратэ 5, Майкоп, Россия, &lt;br&gt;внутренний двор, но что с охраной ХЗ</cmt>
    <desc>Улица Хакуратэ 5, Майкоп, Россия, &lt;br&gt;внутренний двор, но что с охраной ХЗ</desc>
  </wpt>
  <wpt lat="44.601395800" lon="40.110445600">
    <ele>0.000000</ele>
    <name>!Мини-гостиница Сияние +* B$ 2k</name>
    <cmt>Ulitsa Gagarina, 26, Майкоп, Россия, &lt;br&gt;ЧС. возможно пустят во внутренний двор</cmt>
    <desc>Ulitsa Gagarina, 26, Майкоп, Россия, &lt;br&gt;ЧС. возможно пустят во внутренний двор</desc>
  </wpt>
  <wpt lat="44.668256100" lon="40.706207200">
    <ele>0.000000</ele>
    <name>Hotel BONS +* B$ 1.7-3.5L</name>
    <cmt>Ulitsa Ladozhskaya 34, Лабинск, Россия, &lt;br&gt;прозрачное зазаборье, но что с охраной хз</cmt>
    <desc>Ulitsa Ladozhskaya 34, Лабинск, Россия, &lt;br&gt;прозрачное зазаборье, но что с охраной хз</desc>
  </wpt>
  <wpt lat="44.144930400" lon="39.035365300">
    <ele>0.000000</ele>
    <name>!Гостевой дом светлана ????</name>
    <cmt>Зазаборье хорошее</cmt>
    <desc>Зазаборье хорошее</desc>
  </wpt>
  <wpt lat="44.096263600" lon="39.079830900">
    <ele>0.000000</ele>
    <name>Русь 2* B- 2.5-3k</name>
    <cmt>прозрачны забор со шлакбаумом и будкой</cmt>
    <desc>прозрачны забор со шлакбаумом и будкой</desc>
  </wpt>
  <wpt lat="44.090731000" lon="39.087907100">
    <ele>0.000000</ele>
    <name>мини-гост «Дженнет» +-* B- 3,6L</name>
    <cmt>ул. 8-го Марта, д. 8, Туапсе, Россия, &lt;br&gt;Хорошее зазаборье.</cmt>
    <desc>ул. 8-го Марта, д. 8, Туапсе, Россия, &lt;br&gt;Хорошее зазаборье.</desc>
  </wpt>
  <wpt lat="44.080051700" lon="39.098936300">
    <ele>0.000000</ele>
    <name>гд Анастасия +* B$ 2.4k</name>
    <cmt>Ключевая ул.11, Туапсе, Россия, &lt;br&gt;ЧС. должно быть что-то&lt;br&gt;Завтрак 150р</cmt>
    <desc>Ключевая ул.11, Туапсе, Россия, &lt;br&gt;ЧС. должно быть что-то&lt;br&gt;Завтрак 150р</desc>
  </wpt>
  <wpt lat="44.085109300" lon="39.087612000">
    <ele>0.000000</ele>
    <name>!ГД Дубовая Роща 0* B- 1.5k</name>
    <cmt>Щедрина 28, Туапсе, Россия, &lt;br&gt;ЧС, прозрачное зазаборье с автомат. воротами</cmt>
    <desc>Щедрина 28, Туапсе, Россия, &lt;br&gt;ЧС, прозрачное зазаборье с автомат. воротами</desc>
  </wpt>
  <wpt lat="44.107633400" lon="39.087604000">
    <ele>0.000000</ele>
    <name>!ГД Amigo +* B- 1.9k</name>
    <cmt>ЧС, глухое зазаборье</cmt>
    <desc>ЧС, глухое зазаборье</desc>
  </wpt>
  <wpt lat="44.110735900" lon="39.059330800">
    <ele>0.000000</ele>
    <name>!ГД Прохлада +-* B- 1.5k</name>
    <cmt>ЧС. суровое зазаборье. Даже  гараж на пару машин есть</cmt>
    <desc>ЧС. суровое зазаборье. Даже  гараж на пару машин есть</desc>
  </wpt>
  <wpt lat="44.111040200" lon="39.058853400">
    <ele>0.000000</ele>
    <name>ГД Уютный Дворик -* B- 1.5k</name>
    <cmt>ЧС. хз какой</cmt>
    <desc>ЧС. хз какой</desc>
  </wpt>
  <wpt lat="44.108109100" lon="39.087121200">
    <ele>0.000000</ele>
    <name>?ГД Виктория +* B$ 3-4k</name>
    <cmt>Улица Азовская 16, Туапсе, Россия, &lt;br&gt;гараж есть на 0 этаже. если пустят.</cmt>
    <desc>Улица Азовская 16, Туапсе, Россия, &lt;br&gt;гараж есть на 0 этаже. если пустят.</desc>
  </wpt>
  <wpt lat="44.107641100" lon="39.063490900">
    <ele>0.000000</ele>
    <name>?ГД Теплый номерок +-* B$ 2.5-2.8k</name>
    <cmt>Улица Кирова 62, Туапсе, Россия, &lt;br&gt;подобие внутр территории. может закрывается</cmt>
    <desc>Улица Кирова 62, Туапсе, Россия, &lt;br&gt;подобие внутр территории. может закрывается</desc>
  </wpt>
</gpx>
