<?xml version="1.0" encoding="UTF-8"?>
<kml xmlns="http://www.opengis.net/kml/2.2">
  <Document>
    <name>Sochi - SPB-Sochi Short road</name>
    <Style id="icon-1899-0288D1-nodesc-normal">
      <IconStyle>
        <color>ffd18802</color>
        <scale>1</scale>
        <Icon>
          <href>http://www.gstatic.com/mapspro/images/stock/503-wht-blank_maps.png</href>
        </Icon>
        <hotSpot x="16" xunits="pixels" y="32" yunits="insetPixels"/>
      </IconStyle>
      <LabelStyle>
        <scale>0</scale>
      </LabelStyle>
      <BalloonStyle>
        <text><![CDATA[<h3>$[name]</h3>]]></text>
      </BalloonStyle>
    </Style>
    <Style id="icon-1899-0288D1-nodesc-highlight">
      <IconStyle>
        <color>ffd18802</color>
        <scale>1</scale>
        <Icon>
          <href>http://www.gstatic.com/mapspro/images/stock/503-wht-blank_maps.png</href>
        </Icon>
        <hotSpot x="16" xunits="pixels" y="32" yunits="insetPixels"/>
      </IconStyle>
      <LabelStyle>
        <scale>1</scale>
      </LabelStyle>
      <BalloonStyle>
        <text><![CDATA[<h3>$[name]</h3>]]></text>
      </BalloonStyle>
    </Style>
    <StyleMap id="icon-1899-0288D1-nodesc">
      <Pair>
        <key>normal</key>
        <styleUrl>#icon-1899-0288D1-nodesc-normal</styleUrl>
      </Pair>
      <Pair>
        <key>highlight</key>
        <styleUrl>#icon-1899-0288D1-nodesc-highlight</styleUrl>
      </Pair>
    </StyleMap>
    <Placemark>
      <name>Смоленск</name>
      <styleUrl>#icon-1899-0288D1-nodesc</styleUrl>
      <Point>
        <coordinates>
          32.0690918,54.7943516,0
        </coordinates>
      </Point>
    </Placemark>
    <Placemark>
      <name>Курск</name>
      <styleUrl>#icon-1899-0288D1-nodesc</styleUrl>
      <Point>
        <coordinates>
          36.1120605,51.7202226,0
        </coordinates>
      </Point>
    </Placemark>
    <Placemark>
      <name>Феодосия</name>
      <styleUrl>#icon-1899-0288D1-nodesc</styleUrl>
      <Point>
        <coordinates>
          35.3869629,45.0347148,0
        </coordinates>
      </Point>
    </Placemark>
    <Placemark>
      <name>Ялта</name>
      <styleUrl>#icon-1899-0288D1-nodesc</styleUrl>
      <Point>
        <coordinates>
          34.1784668,44.5043413,0
        </coordinates>
      </Point>
    </Placemark>
    <Placemark>
      <name>Севастополь</name>
      <styleUrl>#icon-1899-0288D1-nodesc</styleUrl>
      <Point>
        <coordinates>
          33.5302734,44.6217541,0
        </coordinates>
      </Point>
    </Placemark>
    <Placemark>
      <name>Симферополь</name>
      <styleUrl>#icon-1899-0288D1-nodesc</styleUrl>
      <Point>
        <coordinates>
          34.0795898,44.9570241,0
        </coordinates>
      </Point>
    </Placemark>
    <Placemark>
      <name>Сочи</name>
      <styleUrl>#icon-1899-0288D1-nodesc</styleUrl>
      <Point>
        <coordinates>
          39.7485352,43.5963059,0
        </coordinates>
      </Point>
    </Placemark>
    <Placemark>
      <name>Новороссийск</name>
      <styleUrl>#icon-1899-0288D1-nodesc</styleUrl>
      <Point>
        <coordinates>
          37.7819824,44.7311256,0
        </coordinates>
      </Point>
    </Placemark>
    <Placemark>
      <name>Анапа</name>
      <styleUrl>#icon-1899-0288D1-nodesc</styleUrl>
      <Point>
        <coordinates>
          37.331543,44.8870125,0
        </coordinates>
      </Point>
    </Placemark>
    <Placemark>
      <name>Таганрог</name>
      <styleUrl>#icon-1899-0288D1-nodesc</styleUrl>
      <Point>
        <coordinates>
          38.8641357,47.2587282,0
        </coordinates>
      </Point>
    </Placemark>
    <Placemark>
      <name>Красная Поляна</name>
      <styleUrl>#icon-1899-0288D1-nodesc</styleUrl>
      <Point>
        <coordinates>
          40.2017212,43.6778045,0
        </coordinates>
      </Point>
    </Placemark>
    <Placemark>
      <name>Гагра</name>
      <styleUrl>#icon-1899-0288D1-nodesc</styleUrl>
      <Point>
        <coordinates>
          40.2690125,43.278705,0
        </coordinates>
      </Point>
    </Placemark>
    <Placemark>
      <name>Сухум</name>
      <styleUrl>#icon-1899-0288D1-nodesc</styleUrl>
      <Point>
        <coordinates>
          41.0236359,43.0066557,0
        </coordinates>
      </Point>
    </Placemark>
    <Placemark>
      <name>Гали</name>
      <styleUrl>#icon-1899-0288D1-nodesc</styleUrl>
      <Point>
        <coordinates>
          41.7408371,42.6241073,0
        </coordinates>
      </Point>
    </Placemark>
  </Document>
</kml>
