<?xml version="1.0" encoding="UTF-8"?>
<gpx version="1.0" creator="GPSBabel - http://www.gpsbabel.org" xmlns="http://www.topografix.com/GPX/1/0">
  <time>2015-09-18T12:42:53.818Z</time>
  <bounds minlat="53.913755000" minlon="26.766666667" maxlat="56.016111111" maxlon="30.246944444"/>
  <wpt lat="54.894911700" lon="28.858351300">
    <ele>0.000000</ele>
    <name>Аэродром (вроде остатки колесн техники)</name>
    <cmt>Аэродром (вроде остатки колесн техники)</cmt>
    <desc>Аэродром (вроде остатки колесн техники)</desc>
  </wpt>
  <wpt lat="53.913755000" lon="27.540139000">
    <ele>0.000000</ele>
    <name>Памятник Ноутбуку</name>
    <cmt>Памятник Ноутбуку</cmt>
    <desc>Памятник Ноутбуку</desc>
  </wpt>
  <wpt lat="54.048268600" lon="27.783742500">
    <ele>0.000000</ele>
    <name>Вагоны (стрельбище)</name>
    <cmt>Вагоны (стрельбище)</cmt>
    <desc>Вагоны (стрельбище)</desc>
  </wpt>
  <wpt lat="54.203646000" lon="27.509894400">
    <ele>0.000000</ele>
    <name>Дот (со следами)</name>
    <cmt>Дот (со следами)</cmt>
    <desc>Дот (со следами)</desc>
  </wpt>
  <wpt lat="54.057908000" lon="27.296336900">
    <ele>0.000000</ele>
    <name>!Музей ВОВ</name>
    <cmt>!Музей ВОВ</cmt>
    <desc>!Музей ВОВ</desc>
  </wpt>
  <wpt lat="54.052093500" lon="27.274951600">
    <ele>0.000000</ele>
    <name>Дом на ДОТе</name>
    <cmt>Дом на ДОТе</cmt>
    <desc>Дом на ДОТе</desc>
  </wpt>
  <wpt lat="54.052069800" lon="27.274970400">
    <ele>0.000000</ele>
    <name>Дом на ДОТе</name>
    <cmt>Дом на ДОТе</cmt>
    <desc>Дом на ДОТе</desc>
  </wpt>
  <wpt lat="54.118888889" lon="27.441944444">
    <ele>0.000000</ele>
    <name>КНП командира батальона №177 БРО №5 МиУР</name>
    <cmt>КНП командира батальона №177 БРО №5 МиУР</cmt>
    <desc>КНП командира батальона №177 БРО №5 МиУР</desc>
  </wpt>
  <wpt lat="54.103055556" lon="27.366666667">
    <ele>0.000000</ele>
    <name>ДОТ в картере</name>
    <cmt>ДОТ в картере</cmt>
    <desc>ДОТ в картере</desc>
  </wpt>
  <wpt lat="54.373614700" lon="27.334338400">
    <ele>0.000000</ele>
    <name>? Стеклозавод</name>
    <cmt>? Стеклозавод</cmt>
    <desc>? Стеклозавод</desc>
  </wpt>
  <wpt lat="56.016111111" lon="28.207777778">
    <ele>0.000000</ele>
    <name>Здание почты</name>
    <cmt>Здание почты</cmt>
    <desc>Здание почты</desc>
  </wpt>
  <wpt lat="54.417509400" lon="27.884241800">
    <ele>0.000000</ele>
    <name>Котельня</name>
    <cmt>Котельня</cmt>
    <desc>Котельня</desc>
  </wpt>
  <wpt lat="54.418486700" lon="27.883740700">
    <ele>0.000000</ele>
    <name>Столовая</name>
    <cmt>Столовая</cmt>
    <desc>Столовая</desc>
  </wpt>
  <wpt lat="54.418580400" lon="27.882109900">
    <ele>0.000000</ele>
    <name>СпортЗал</name>
    <cmt>СпортЗал</cmt>
    <desc>СпортЗал</desc>
  </wpt>
  <wpt lat="53.915833333" lon="27.600000000">
    <ele>0.000000</ele>
    <name>Заброшенная детская больница</name>
    <cmt>Заброшенная детская больница</cmt>
    <desc>Заброшенная детская больница</desc>
  </wpt>
  <wpt lat="54.418636600" lon="27.885060300">
    <ele>0.000000</ele>
    <name>Баня?</name>
    <cmt>Баня?</cmt>
    <desc>Баня?</desc>
  </wpt>
  <wpt lat="54.419260800" lon="27.882646300">
    <ele>0.000000</ele>
    <name>Котельня</name>
    <cmt>Котельня</cmt>
    <desc>Котельня</desc>
  </wpt>
  <wpt lat="54.420684100" lon="27.879567100">
    <ele>0.000000</ele>
    <name>Плац</name>
    <cmt>Плац</cmt>
    <desc>Плац</desc>
  </wpt>
  <wpt lat="55.118611111" lon="26.766666667">
    <ele>0.000000</ele>
    <name>Аэродром Поставы (Сохран хор)</name>
    <cmt>Хорошо сохранились технические и вспомогательные строения, склады и ангары</cmt>
    <desc>Хорошо сохранились технические и вспомогательные строения, склады и ангары</desc>
  </wpt>
  <wpt lat="55.254444444" lon="30.246944444">
    <ele>0.000000</ele>
    <name>Недействующий аэродром Витебск-Северный </name>
    <cmt>Расформирован в 2000.</cmt>
    <desc>Расформирован в 2000.</desc>
  </wpt>
</gpx>
