<?xml version="1.0" encoding="UTF-8"?>
<gpx version="1.0" creator="GPSBabel - http://www.gpsbabel.org" xmlns="http://www.topografix.com/GPX/1/0">
  <time>2020-07-24T20:15:38.695Z</time>
  <bounds minlat="41.612493000" minlon="20.359782300" maxlat="67.614357300" maxlon="77.592906000"/>
  <wpt lat="54.187752700" lon="37.690285100">
    <ele>0.000000</ele>
    <name>МО Скорпион +-* 1,3-1,7k B150 PZ (ворота открыты?)</name>
    <cmt>МО Скорпион +-* 1,3-1,7k B150 PZ (ворота открыты?)</cmt>
    <desc>МО Скорпион +-* 1,3-1,7k B150 PZ (ворота открыты?)</desc>
  </wpt>
  <wpt lat="54.188208700" lon="37.630085200">
    <ele>0.000000</ele>
    <name>ГД Европейский +-* PZ 2k B280 14m AC
</name>
    <cmt>Ворота открыты до 21. по факту это ЖК, отель дом при въезде и часть жилого дома за ним. очень маленькие стандартные номера и СУ.&lt;br&gt;Сидя на унитаже можно заодно чистить зубы и сияд на кровате кушать с подоконника.&lt;br&gt;на можно брать немного подороже и побольше.</cmt>
    <desc>Ворота открыты до 21. по факту это ЖК, отель дом при въезде и часть жилого дома за ним. очень маленькие стандартные номера и СУ.&lt;br&gt;Сидя на унитаже можно заодно чистить зубы и сияд на кровате кушать с подоконника.&lt;br&gt;на можно брать немного подороже и побольше.</desc>
  </wpt>
  <wpt lat="46.300541000" lon="48.010502000">
    <ele>0.000000</ele>
    <name>&quot;Семейная 0* 1.7-2.4k PZ BB</name>
    <cmt>&quot;Семейная 0* 1.7-2.4k PZ BB</cmt>
    <desc>&quot;Семейная 0* 1.7-2.4k PZ BB</desc>
  </wpt>
  <wpt lat="56.877221600" lon="35.896036100">
    <ele>0.000000</ele>
    <name>Вишневый сад +*B$350 2,3-3k PZ ЧС</name>
    <cmt>ул Чехова 30</cmt>
    <desc>ул Чехова 30</desc>
  </wpt>
  <wpt lat="56.877711000" lon="35.895800900">
    <ele>0.000000</ele>
    <name>Чехов *+ B$350 2,4-3,1 PZ ЧС</name>
    <cmt>ул Чехова 31</cmt>
    <desc>ул Чехова 31</desc>
  </wpt>
  <wpt lat="45.071143500" lon="38.927504100">
    <ele>0.000000</ele>
    <name>! Ивушка +* BB 1,6к PLZ ЧС 20м</name>
    <cmt>Глухой забор</cmt>
    <desc>Глухой забор</desc>
  </wpt>
  <wpt lat="44.968862800" lon="34.103000200">
    <ele>0.000000</ele>
    <name>Россия +* BBB 3.2k PL 30m</name>
    <cmt>Хороший завтрак включен&lt;br&gt;Хорошо внутри, но что с парковкой не понятно вовсе.</cmt>
    <desc>Хороший завтрак включен&lt;br&gt;Хорошо внутри, но что с парковкой не понятно вовсе.</desc>
  </wpt>
  <wpt lat="45.045894200" lon="35.375353000">
    <ele>0.000000</ele>
    <name>Людмила +* B- 2кL ЧС 20m</name>
    <cmt>Людмила +* B- 2кL ЧС 20m</cmt>
    <desc>Людмила +* B- 2кL ЧС 20m</desc>
  </wpt>
  <wpt lat="43.166785500" lon="40.339704800">
    <ele>0.000000</ele>
    <name>ГД Амра +* B- 2к PZ 18m</name>
    <cmt>Улица Агрба 16/2, 198264 Пицунда, Абхазия</cmt>
    <desc>Улица Агрба 16/2, 198264 Пицунда, Абхазия</desc>
  </wpt>
  <wpt lat="43.092641000" lon="40.598424000">
    <ele>0.000000</ele>
    <name>Папа +* FB 4.3k PZ 24m</name>
    <cmt>Возможно есть номера попроще</cmt>
    <desc>Возможно есть номера попроще</desc>
  </wpt>
  <wpt lat="43.092140000" lon="40.595477500">
    <ele>0.000000</ele>
    <name>Бамбора ?* ?k</name>
    <cmt>Бамбора ?* ?k</cmt>
    <desc>Бамбора ?* ?k</desc>
  </wpt>
  <wpt lat="43.004733900" lon="41.042569100">
    <ele>0.000000</ele>
    <name>ГД Тали ++-* B- 1.6k ЧСZ 19m</name>
    <cmt>ГД Тали ++-* B- 1.6k ЧСZ 19m</cmt>
    <desc>ГД Тали ++-* B- 1.6k ЧСZ 19m</desc>
  </wpt>
  <wpt lat="43.004521600" lon="41.042207500">
    <ele>0.000000</ele>
    <name>ГД +-* B$ 1.5k PZ ЧС 10м</name>
    <cmt>Завтрак 150р</cmt>
    <desc>Завтрак 150р</desc>
  </wpt>
  <wpt lat="56.124413600" lon="40.396593700">
    <ele>0.000000</ele>
    <name>Мономах +* BBB 3.7k PL 22м</name>
    <cmt>вроде озаборенное заотелье.</cmt>
    <desc>вроде озаборенное заотелье.</desc>
  </wpt>
  <wpt lat="56.132253000" lon="40.411050000">
    <ele>0.000000</ele>
    <name>! Владимирский дворик +-* BB$ 3.1k PZT 18m</name>
    <cmt>Завтрак 250р&lt;br&gt;внутренняя территория за автоматическим прозрачным забором</cmt>
    <desc>Завтрак 250р&lt;br&gt;внутренняя территория за автоматическим прозрачным забором</desc>
  </wpt>
  <wpt lat="56.140460900" lon="40.490804400">
    <ele>0.000000</ele>
    <name>ТБ Ладога 0* B$ 1,6к P$ 20м</name>
    <cmt>завтрак 170p континентальный&lt;br&gt;Парковка 50р. своя большя территория в лесу.</cmt>
    <desc>завтрак 170p континентальный&lt;br&gt;Парковка 50р. своя большя территория в лесу.</desc>
  </wpt>
  <wpt lat="56.127022000" lon="40.405437000">
    <ele>0.000000</ele>
    <name>ГК Панорама +-* BBB 3,9к PL 16m</name>
    <cmt>хз  что с парковкой.</cmt>
    <desc>хз  что с парковкой.</desc>
  </wpt>
  <wpt lat="56.118098200" lon="40.336121200">
    <ele>0.000000</ele>
    <name>Семязино +-* B$350p PZ 15m</name>
    <cmt>глухой забор с прозрачными воротами</cmt>
    <desc>глухой забор с прозрачными воротами</desc>
  </wpt>
  <wpt lat="57.962498000" lon="56.122255700">
    <ele>0.000000</ele>
    <name>! [BLD] Мармелад 3* BBB 3.1k 21m PZT</name>
    <cmt>Глухой забор, ворота автомат.&lt;br&gt;но банный комплекс.</cmt>
    <desc>Глухой забор, ворота автомат.&lt;br&gt;но банный комплекс.</desc>
  </wpt>
  <wpt lat="58.058552900" lon="56.346687400">
    <ele>0.000000</ele>
    <name>Купец +* BB 2.4k PN$</name>
    <cmt>Рядом стоянка платная</cmt>
    <desc>Рядом стоянка платная</desc>
  </wpt>
  <wpt lat="58.007090000" lon="56.249062000">
    <ele>0.000000</ele>
    <name>New Star 4* BB 4,2к PZT$ 20m</name>
    <cmt>прозрачны забор, но закрываемый. 100р стоит.</cmt>
    <desc>прозрачны забор, но закрываемый. 100р стоит.</desc>
  </wpt>
  <wpt lat="58.051516000" lon="56.292575000">
    <ele>0.000000</ele>
    <name>Шале 4* BBB 2.3k Z ЧС</name>
    <cmt>нет мест обычно.&lt;br&gt;есть территория озаборенная, о сама парковка на улице... возможно пустят за забор</cmt>
    <desc>нет мест обычно.&lt;br&gt;есть территория озаборенная, о сама парковка на улице... возможно пустят за забор</desc>
  </wpt>
  <wpt lat="61.668801000" lon="50.831602000">
    <ele>0.000000</ele>
    <name>Авалон 3* B- 4.8k P$500р 24м</name>
    <cmt>возможно подземная.</cmt>
    <desc>возможно подземная.</desc>
  </wpt>
  <wpt lat="59.606917100" lon="60.556703600">
    <ele>0.000000</ele>
    <name>! Мини-Отель 0* B- 1,4к ЧС 36м</name>
    <cmt>Улица Ленина 97, Серов, Россия&lt;br&gt;Но не факт что забор есть</cmt>
    <desc>Улица Ленина 97, Серов, Россия&lt;br&gt;Но не факт что забор есть</desc>
  </wpt>
  <wpt lat="61.253430700" lon="46.634731500">
    <ele>0.000000</ele>
    <name>Советский +-* B$200p 3,3к PLZD</name>
    <cmt>Внутренний двор, закрытый от глаз, но не закрываемый.</cmt>
    <desc>Внутренний двор, закрытый от глаз, но не закрываемый.</desc>
  </wpt>
  <wpt lat="59.597952000" lon="60.593826800">
    <ele>0.000000</ele>
    <name>Колизей 0* B- 1.2k PL 18m</name>
    <cmt>ул. Агломератчиков, 21б&lt;br&gt;что с паркойкой ХЗ</cmt>
    <desc>ул. Агломератчиков, 21б&lt;br&gt;что с паркойкой ХЗ</desc>
  </wpt>
  <wpt lat="59.598295600" lon="60.582231000">
    <ele>0.000000</ele>
    <name>Надеждинский 2*R B$150р 3.2k PLГS</name>
    <cmt>парковка за домом за шлакбаумом. вроде с собакой&lt;br&gt;Кровати - раздельные совсем.</cmt>
    <desc>парковка за домом за шлакбаумом. вроде с собакой&lt;br&gt;Кровати - раздельные совсем.</desc>
  </wpt>
  <wpt lat="61.247472100" lon="73.380093900">
    <ele>0.000000</ele>
    <name>Екатеринин Двор 4* B- 4.7k PZ ЧС 21m</name>
    <cmt>Озаборенный ЧС.&lt;br&gt;номер с завтраком на 500 р дороже</cmt>
    <desc>Озаборенный ЧС.&lt;br&gt;номер с завтраком на 500 р дороже</desc>
  </wpt>
  <wpt lat="61.278007000" lon="73.385618900">
    <ele>0.000000</ele>
    <name>Клен +-* B$280р 2к PZD 17м</name>
    <cmt>огороженная непросматриваемая  территория, но не закрываемая</cmt>
    <desc>огороженная непросматриваемая  территория, но не закрываемая</desc>
  </wpt>
  <wpt lat="61.240162400" lon="73.479841200">
    <ele>0.000000</ele>
    <name>~ Кристалл +* BB 3k PL 15m</name>
    <cmt>на парорамах нету его</cmt>
    <desc>на парорамах нету его</desc>
  </wpt>
  <wpt lat="61.250299300" lon="73.364446200">
    <ele>0.000000</ele>
    <name>Метрополис 4* BB 5.6k PL 22м</name>
    <cmt>Что с парковкой непоянтно. возможно подземная</cmt>
    <desc>Что с парковкой непоянтно. возможно подземная</desc>
  </wpt>
  <wpt lat="61.310984000" lon="73.391036000">
    <ele>0.000000</ele>
    <name>Ливадия (БЛД) 3* BB 3k PL 20м</name>
    <cmt>парковка открытая, пристегнуться только и можно&lt;br&gt;совмещена с сауной</cmt>
    <desc>парковка открытая, пристегнуться только и можно&lt;br&gt;совмещена с сауной</desc>
  </wpt>
  <wpt lat="61.283748000" lon="73.303824000">
    <ele>0.000000</ele>
    <name>! Econom Inn +-* B- 1,6к PL ЧС</name>
    <cmt>! Econom Inn +-* B- 1,6к PL ЧС</cmt>
    <desc>! Econom Inn +-* B- 1,6к PL ЧС</desc>
  </wpt>
  <wpt lat="61.233774000" lon="73.471928000">
    <ele>0.000000</ele>
    <name>~~ Бутик-Отель Сургут +* BB 3к 14м</name>
    <cmt>Улица Щепёткина 20Б, Сургут, Россия&lt;br&gt;Не все номера кашерные</cmt>
    <desc>Улица Щепёткина 20Б, Сургут, Россия&lt;br&gt;Не все номера кашерные</desc>
  </wpt>
  <wpt lat="61.273205100" lon="73.358873200">
    <ele>0.000000</ele>
    <name>Riviera +* BB 4.1kL PZ ЧС 25м</name>
    <cmt>Riviera +* BB 4.1kL PZ ЧС 25м</cmt>
    <desc>Riviera +* BB 4.1kL PZ ЧС 25м</desc>
  </wpt>
  <wpt lat="61.025476700" lon="69.125305500">
    <ele>0.000000</ele>
    <name>ГК &quot;Cronwell Resort Югорская Долина&quot; 5к</name>
    <cmt>ГК &quot;Cronwell Resort Югорская Долина&quot; 5к</cmt>
    <desc>ГК &quot;Cronwell Resort Югорская Долина&quot; 5к</desc>
  </wpt>
  <wpt lat="61.019244300" lon="69.086269100">
    <ele>0.000000</ele>
    <name>Русский Двор</name>
    <cmt>Русский Двор</cmt>
    <desc>Русский Двор</desc>
  </wpt>
  <wpt lat="53.338066000" lon="29.038367300">
    <ele>0.000000</ele>
    <name>Agrousadba Krasnoye +-* BB 4,5к ЧС 15м</name>
    <cmt>Naberezhnaya Street 95G, 213731 Kosʼye, Беларусь</cmt>
    <desc>Naberezhnaya Street 95G, 213731 Kosʼye, Беларусь</desc>
  </wpt>
  <wpt lat="57.078533700" lon="24.110460000">
    <ele>0.000000</ele>
    <name>! ГД Bilera 0* B$ 2.3k PPLZ ЧС 12m</name>
    <cmt>Завтрак 8 евро&lt;br&gt;хорошее зазаборье в ЧС</cmt>
    <desc>Завтрак 8 евро&lt;br&gt;хорошее зазаборье в ЧС</desc>
  </wpt>
  <wpt lat="54.678928400" lon="25.263522200">
    <ele>0.000000</ele>
    <name>Grata 3* BB 4k PPL$ 15m</name>
    <cmt>Парковка на улице, но есть дворик. хз что там</cmt>
    <desc>Парковка на улице, но есть дворик. хз что там</desc>
  </wpt>
  <wpt lat="54.676435000" lon="25.271662800">
    <ele>0.000000</ele>
    <name>Algirdas 4* B$ 3.7k PMA 15m</name>
    <cmt>Парковки нет.&lt;br&gt;завтрак 431р</cmt>
    <desc>Парковки нет.&lt;br&gt;завтрак 431р</desc>
  </wpt>
  <wpt lat="54.674044100" lon="25.285065800">
    <ele>0.000000</ele>
    <name>!Alexa 3* B$ 3.7k PPL 22m</name>
    <cmt>С парковкой непонятно. возможно во дворе&lt;br&gt;завтрак 7 евро</cmt>
    <desc>С парковкой непонятно. возможно во дворе&lt;br&gt;завтрак 7 евро</desc>
  </wpt>
  <wpt lat="54.694593000" lon="25.247414900">
    <ele>0.000000</ele>
    <name>!Embassy Balatonas 4* BB 3.4k(6k) PPL 25м</name>
    <cmt>Парковка в заотелье. условно за воротами (но там дальше маленький ЧС)</cmt>
    <desc>Парковка в заотелье. условно за воротами (но там дальше маленький ЧС)</desc>
  </wpt>
  <wpt lat="54.720039300" lon="25.086116700">
    <ele>0.000000</ele>
    <name>Villa &quot;Aurora&quot; +-* BB- 3.7k PPLA ЧС 90м </name>
    <cmt>парковка-территория  открытая совсем.&lt;br&gt;10 персон допустимо, но за большие деньги.</cmt>
    <desc>парковка-территория  открытая совсем.&lt;br&gt;10 персон допустимо, но за большие деньги.</desc>
  </wpt>
  <wpt lat="54.642096300" lon="25.278732300">
    <ele>0.000000</ele>
    <name>AirInn Vilnius Hotel 3* BB 4.9k PPLZ</name>
    <cmt>забор рабица, шлакбаум. собаки нет.</cmt>
    <desc>забор рабица, шлакбаум. собаки нет.</desc>
  </wpt>
  <wpt lat="54.673098900" lon="25.283795000">
    <ele>0.000000</ele>
    <name>Hostel Sodu 0* BB 2.4k/2 PP</name>
    <cmt>Sodu Street 8, Вильнюс — Старый город, LT-01313 Вильнюс, Литва&lt;br&gt;Парковка на огороженной территории, но не запираемой&lt;br&gt;Номер с душем только один.</cmt>
    <desc>Sodu Street 8, Вильнюс — Старый город, LT-01313 Вильнюс, Литва&lt;br&gt;Парковка на огороженной территории, но не запираемой&lt;br&gt;Номер с душем только один.</desc>
  </wpt>
  <wpt lat="62.187856000" lon="35.416081000">
    <ele>0.000000</ele>
    <name>ГД За Онегу 0* 4,5-5,5к/4-8ч</name>
    <cmt>Тел. +7 (931) 002-89-81; +7 (921) 969-41-41&lt;br&gt;zaonegu.ru&lt;br&gt;vk.com/zaonegu</cmt>
    <desc>Тел. +7 (931) 002-89-81; +7 (921) 969-41-41&lt;br&gt;zaonegu.ru&lt;br&gt;vk.com/zaonegu</desc>
  </wpt>
  <wpt lat="64.400739300" lon="34.140186300">
    <ele>0.000000</ele>
    <name>Мотель Пушной -* 2.5k/1 PPL</name>
    <cmt>Ulitsa Lekhtinskaya 1, Пушной, Россия&lt;br&gt;на фото есть номер с большой кроватью. о идет как одноместный&lt;br&gt;Номера ОЧЕНЬ маленькие</cmt>
    <desc>Ulitsa Lekhtinskaya 1, Пушной, Россия&lt;br&gt;на фото есть номер с большой кроватью. о идет как одноместный&lt;br&gt;Номера ОЧЕНЬ маленькие</desc>
  </wpt>
  <wpt lat="59.853480200" lon="38.367326300">
    <ele>0.000000</ele>
    <name>Гостиница Русь ?нет данных?</name>
    <cmt>Гостиница Русь ?нет данных?</cmt>
    <desc>Гостиница Русь ?нет данных?</desc>
  </wpt>
  <wpt lat="59.860475900" lon="38.374042500">
    <ele>0.000000</ele>
    <name>! Луманская Заводь 0* B$ 1,2к PZ
</name>
    <cmt>Улица Гагарина 110, Кириллов, Россия&lt;br&gt;Завтрак 100р&lt;br&gt;Забор с надписью стоянка</cmt>
    <desc>Улица Гагарина 110, Кириллов, Россия&lt;br&gt;Завтрак 100р&lt;br&gt;Забор с надписью стоянка</desc>
  </wpt>
  <wpt lat="59.853711800" lon="38.367229700">
    <ele>0.000000</ele>
    <name>ГД У озера 0* 3к/3 ЧС
</name>
    <cmt>Краснослободской переулок 3, Кириллов, Россия&lt;br&gt;условный частный сектор + на отшибе.</cmt>
    <desc>Краснослободской переулок 3, Кириллов, Россия&lt;br&gt;условный частный сектор + на отшибе.</desc>
  </wpt>
  <wpt lat="60.705498300" lon="36.301971700">
    <ele>0.000000</ele>
    <name>ГД Ежезеро +* 3,5к
</name>
    <cmt>Вытегорский район, Ежезерский Погост, Ежезеро, Россия&lt;br&gt;открыто всем ветрам</cmt>
    <desc>Вытегорский район, Ежезерский Погост, Ежезеро, Россия&lt;br&gt;открыто всем ветрам</desc>
  </wpt>
  <wpt lat="61.668912400" lon="36.358909600">
    <ele>0.000000</ele>
    <name>ГД Нигижма -* 1,5к
</name>
    <cmt>адреса нет. забора нет</cmt>
    <desc>адреса нет. забора нет</desc>
  </wpt>
  <wpt lat="61.008341600" lon="36.441044200">
    <ele>0.000000</ele>
    <name>Wardenclyffe Volgo&amp;Balt 5* BB PP 1.9/2.8k-2/3
</name>
    <cmt>проспект Ленина 3А, Вытегра, Россия</cmt>
    <desc>проспект Ленина 3А, Вытегра, Россия</desc>
  </wpt>
  <wpt lat="60.475024700" lon="37.878230800">
    <ele>0.000000</ele>
    <name>ГД Каменный Бор +-* B- 1.4k
</name>
    <cmt>деревня Гавриловская 5, Марково, Россия&lt;br&gt;открыто, но деревенька пшик.</cmt>
    <desc>деревня Гавриловская 5, Марково, Россия&lt;br&gt;открыто, но деревенька пшик.</desc>
  </wpt>
  <wpt lat="64.551067000" lon="40.550397600">
    <ele>0.000000</ele>
    <name>Hotel Argo +-* B$ 2,5к</name>
    <cmt>Ulitsa Gaydara 59 Bldg 3, Архангельск, Россия &lt;br&gt;впритык стонка с собачатниками&lt;br&gt;&lt;br&gt;Покрутились рядом - как то он не понравился. в этом же здании гаражный автосервис, что там утром с шумом ХЗ.</cmt>
    <desc>Ulitsa Gaydara 59 Bldg 3, Архангельск, Россия &lt;br&gt;впритык стонка с собачатниками&lt;br&gt;&lt;br&gt;Покрутились рядом - как то он не понравился. в этом же здании гаражный автосервис, что там утром с шумом ХЗ.</desc>
  </wpt>
  <wpt lat="59.847207700" lon="38.378988500">
    <ele>0.000000</ele>
    <name>Гостиница 0* В- 1,5к/3 ЧС
</name>
    <cmt>Улица Гагарина 57, Кириллов, Россия&lt;br&gt;глухие ворота. возможно микродворик.</cmt>
    <desc>Улица Гагарина 57, Кириллов, Россия&lt;br&gt;глухие ворота. возможно микродворик.</desc>
  </wpt>
  <wpt lat="52.448290800" lon="30.999400000">
    <ele>0.000000</ele>
    <name>Турист 3* B$ PN$ 0.8/1.8к</name>
    <cmt>Улица Советская 87, 246028 Гомель, Беларусь, платная парковка с собачаткником. Завтрак 200р</cmt>
    <desc>Улица Советская 87, 246028 Гомель, Беларусь, платная парковка с собачаткником. Завтрак 200р</desc>
  </wpt>
  <wpt lat="52.467413200" lon="31.004399700">
    <ele>0.000000</ele>
    <name>Хостел ГЕО +-* B$ 1к ЧС PPL</name>
    <cmt>Частынй сектор. трехместный номер с нормлаьной кроватью 1кр. Осносительное зазаборье</cmt>
    <desc>Частынй сектор. трехместный номер с нормлаьной кроватью 1кр. Осносительное зазаборье</desc>
  </wpt>
  <wpt lat="52.447610700" lon="31.000392400">
    <ele>0.000000</ele>
    <name>Надзея +-* BB 2,3к P$N</name>
    <cmt>Golovatskogo 19, 246028 Гомель, Беларусь &lt;br&gt;в притык платная парковка с собачатником</cmt>
    <desc>Golovatskogo 19, 246028 Гомель, Беларусь &lt;br&gt;в притык платная парковка с собачатником</desc>
  </wpt>
  <wpt lat="52.404290900" lon="30.960427500">
    <ele>0.000000</ele>
    <name>Чисто Отель +* BB PPL 1,9к</name>
    <cmt>Улица Братьев Лизюковых 4А, 246029 Гомель, Беларусь, вроде как дворик, хоть и не закрываемый</cmt>
    <desc>Улица Братьев Лизюковых 4А, 246029 Гомель, Беларусь, вроде как дворик, хоть и не закрываемый</desc>
  </wpt>
  <wpt lat="52.427989100" lon="31.014533000">
    <ele>0.000000</ele>
    <name>Отель Центральная ++* B? PPL 1.7/2.3k</name>
    <cmt>Улица Ланге 17, въезд со стороны улицы Советская, 246050 Гомель, Беларусь&lt;br&gt;внутри квартала. может и ок.</cmt>
    <desc>Улица Ланге 17, въезд со стороны улицы Советская, 246050 Гомель, Беларусь&lt;br&gt;внутри квартала. может и ок.</desc>
  </wpt>
  <wpt lat="52.418935700" lon="31.010858400">
    <ele>0.000000</ele>
    <name>Замковый 4* B$ PPZ 4к/2</name>
    <cmt>Улица Гагарина 6, 246050 Гомель, Беларусь&lt;br&gt;Парковка за програчным забором, но есть внутренний дворик. может и пустят.&lt;br&gt;Завтрак в 4к не включен, но включен к 5,2к</cmt>
    <desc>Улица Гагарина 6, 246050 Гомель, Беларусь&lt;br&gt;Парковка за програчным забором, но есть внутренний дворик. может и пустят.&lt;br&gt;Завтрак в 4к не включен, но включен к 5,2к</desc>
  </wpt>
  <wpt lat="52.344971700" lon="30.967288600">
    <ele>0.000000</ele>
    <name>Белая Дача +* B$ ЧС PPZ 3к/4чел</name>
    <cmt>Poselok Chenki, Oktyabr'skaya 117, 247001 Гомель, Беларусь&lt;br&gt;Завтрак 500р&lt;br&gt;частный сектор, зазаборье, дебеня</cmt>
    <desc>Poselok Chenki, Oktyabr'skaya 117, 247001 Гомель, Беларусь&lt;br&gt;Завтрак 500р&lt;br&gt;частный сектор, зазаборье, дебеня</desc>
  </wpt>
  <wpt lat="52.539004100" lon="31.942963600">
    <ele>0.000000</ele>
    <name>Солнечный Ветер 0* ВВ PPZ 1,8к/2</name>
    <cmt>Улица Рошаля 29, Новозыбков, Россия&lt;br&gt;Озаборенная территория</cmt>
    <desc>Улица Рошаля 29, Новозыбков, Россия&lt;br&gt;Озаборенная территория</desc>
  </wpt>
  <wpt lat="52.891913900" lon="30.035612600">
    <ele>0.000000</ele>
    <name>АМАКС Сити +-* ВВ PPL$ 1.3к</name>
    <cmt>Улица Петровского 44, 247210 Жлобин, Беларусь&lt;br&gt;вроде есть дворовое зазаборье.</cmt>
    <desc>Улица Петровского 44, 247210 Жлобин, Беларусь&lt;br&gt;вроде есть дворовое зазаборье.</desc>
  </wpt>
  <wpt lat="52.573076800" lon="30.187940600">
    <ele>0.000000</ele>
    <name>? Agrousadba Gorval GH +* ЧС 3к/2</name>
    <cmt>Zarechny Pereulok 24 (Rechnaya Street Access), 247522 Горваль, Беларусь&lt;br&gt;местоположение не точно</cmt>
    <desc>Zarechny Pereulok 24 (Rechnaya Street Access), 247522 Горваль, Беларусь&lt;br&gt;местоположение не точно</desc>
  </wpt>
  <wpt lat="52.147750200" lon="30.975072400">
    <ele>0.000000</ele>
    <name>ГК Ранчо +* B$ ЧС 2.8k</name>
    <cmt>Гомельский район, трасса М8, 448-ой км, 4, 246000 Студёная Гута, Беларусь&lt;br&gt;Завтрак 270р&lt;br&gt;за такую цену домик только один.</cmt>
    <desc>Гомельский район, трасса М8, 448-ой км, 4, 246000 Студёная Гута, Беларусь&lt;br&gt;Завтрак 270р&lt;br&gt;за такую цену домик только один.</desc>
  </wpt>
  <wpt lat="53.481533800" lon="29.823589300">
    <ele>0.000000</ele>
    <name>Отдых на поляне +-* B$ ЧС 1,6к/2 11м (B-T-)</name>
    <cmt>Туалет и ванная общиие&lt;br&gt;Chernoborskiy S/S, 2, Poselok Grudichino, 213317 Чечевичи, Беларусь&lt;br&gt;http://palyana.by/#menu7&lt;br&gt;Зазаборная территория</cmt>
    <desc>Туалет и ванная общиие&lt;br&gt;Chernoborskiy S/S, 2, Poselok Grudichino, 213317 Чечевичи, Беларусь&lt;br&gt;http://palyana.by/#menu7&lt;br&gt;Зазаборная территория</desc>
  </wpt>
  <wpt lat="52.526584300" lon="31.962742200">
    <ele>0.000000</ele>
    <name>Грин Парк +* В- PPL 1.9k/2</name>
    <cmt>Улица Мичурина 46а, Новозыбков, Россия&lt;br&gt;Частично озаборено. есть своя территория. может и ок.</cmt>
    <desc>Улица Мичурина 46а, Новозыбков, Россия&lt;br&gt;Частично озаборено. есть своя территория. может и ок.</desc>
  </wpt>
  <wpt lat="52.749811300" lon="32.235158100">
    <ele>0.000000</ele>
    <name>Уют Центральная 2* В- PPL 1.3/1.4k</name>
    <cmt>Улица Карла Маркса 1, Клинцы, Россия&lt;br&gt;Возможно есть территория</cmt>
    <desc>Улица Карла Маркса 1, Клинцы, Россия&lt;br&gt;Возможно есть территория</desc>
  </wpt>
  <wpt lat="52.756993200" lon="32.228672500">
    <ele>0.000000</ele>
    <name>Кольцо 3* ВВ PPL 1.9/2.6k</name>
    <cmt>Октябрьская Улица 49, Клинцы, Россия&lt;br&gt;Вроде двор есть</cmt>
    <desc>Октябрьская Улица 49, Клинцы, Россия&lt;br&gt;Вроде двор есть</desc>
  </wpt>
  <wpt lat="64.682208300" lon="40.708122300">
    <ele>0.000000</ele>
    <name>База отдыха Лукоморье +* B$ 2-3k ЧС</name>
    <cmt>Поселок Транспортник, Улица База отдыха Реалком 11, Архангельск, Россия&lt;br&gt;Своя территория. Большая.&lt;br&gt;Завтрак 250р&lt;br&gt;внутри деревянно-антуражненько</cmt>
    <desc>Поселок Транспортник, Улица База отдыха Реалком 11, Архангельск, Россия&lt;br&gt;Своя территория. Большая.&lt;br&gt;Завтрак 250р&lt;br&gt;внутри деревянно-антуражненько</desc>
  </wpt>
  <wpt lat="64.543088900" lon="40.552082100">
    <ele>0.000000</ele>
    <name>Форт Нокс +* BB P$ 2.8k</name>
    <cmt>Улица Выучейского 88, корп. 2 , Архангельск, Россия &lt;br&gt;парковка платная&lt;br&gt;надо смотреть</cmt>
    <desc>Улица Выучейского 88, корп. 2 , Архангельск, Россия &lt;br&gt;парковка платная&lt;br&gt;надо смотреть</desc>
  </wpt>
  <wpt lat="64.513413300" lon="40.655290800">
    <ele>0.000000</ele>
    <name>Russkaya Banya +-* 7к/6чел ЧС</name>
    <cmt>Дом в сборе. с сауной, стиралкой и пр.&lt;br&gt;на толпу - весьма</cmt>
    <desc>Дом в сборе. с сауной, стиралкой и пр.&lt;br&gt;на толпу - весьма</desc>
  </wpt>
  <wpt lat="64.572506600" lon="39.828357700">
    <ele>0.000000</ele>
    <name>Парковая 9 0* 1,7/2,3к</name>
    <cmt>Улица Парковая 9, Северодвинск, Россия&lt;br&gt;относительный закуток.</cmt>
    <desc>Улица Парковая 9, Северодвинск, Россия&lt;br&gt;относительный закуток.</desc>
  </wpt>
  <wpt lat="61.664008800" lon="40.196743000">
    <ele>0.000000</ele>
    <name>на Вокзальной +-* ВВ 3,5/4,5к ЧС</name>
    <cmt>на фото стройка. отдельный дом с территорией не огороженной.</cmt>
    <desc>на фото стройка. отдельный дом с территорией не огороженной.</desc>
  </wpt>
  <wpt lat="57.041430000" lon="28.912025000">
    <ele>0.000000</ele>
    <name>Литературный отель Арина Р +* BB PS 3,5к</name>
    <cmt>Деревня Бугрово, 1а, Пушкинские горы, Россия&lt;br&gt;Деревня, Ворзможно зазаборье</cmt>
    <desc>Деревня Бугрово, 1а, Пушкинские горы, Россия&lt;br&gt;Деревня, Ворзможно зазаборье</desc>
  </wpt>
  <wpt lat="53.860991000" lon="27.465464000">
    <ele>0.000000</ele>
    <name>!Гост Звезда 2* B- NP$ 2,9к</name>
    <cmt>проспект имени газеты Звезда 47, Moskovsky District, 220117 Минск, Беларусь&lt;br&gt;Впритык платная парковка</cmt>
    <desc>проспект имени газеты Звезда 47, Moskovsky District, 220117 Минск, Беларусь&lt;br&gt;Впритык платная парковка</desc>
  </wpt>
  <wpt lat="53.894173000" lon="27.450823000">
    <ele>0.000000</ele>
    <name>Гост. Вояж -* p$300m 5k</name>
    <cmt>Улица Якубовского 52 А, Frunzensky District, 220018 Минск, Беларусь&lt;br&gt;платная автостоянка в 300м&lt;br&gt;брать можно только люкс. остальное шлак</cmt>
    <desc>Улица Якубовского 52 А, Frunzensky District, 220018 Минск, Беларусь&lt;br&gt;платная автостоянка в 300м&lt;br&gt;брать можно только люкс. остальное шлак</desc>
  </wpt>
  <wpt lat="53.910497000" lon="27.505930000">
    <ele>0.000000</ele>
    <name>BonHotel 3* B$ NP$500m 3.2k</name>
    <cmt>Улица Притыцкого 2, Frunzensky District, 220073 Минск, Беларусь&lt;br&gt;Платная стоянка в 500-х метрах</cmt>
    <desc>Улица Притыцкого 2, Frunzensky District, 220073 Минск, Беларусь&lt;br&gt;Платная стоянка в 500-х метрах</desc>
  </wpt>
  <wpt lat="53.878568000" lon="27.533405000">
    <ele>0.000000</ele>
    <name>Гост Спутник(савок) -3* B$ NP$300m 4.5k</name>
    <cmt>Брилевская Улица 2, Oktyabrsky District, 220039 Минск, Беларусь&lt;br&gt;Недалеко платная автостоянка</cmt>
    <desc>Брилевская Улица 2, Oktyabrsky District, 220039 Минск, Беларусь&lt;br&gt;Недалеко платная автостоянка</desc>
  </wpt>
  <wpt lat="53.958265000" lon="27.539537000">
    <ele>0.000000</ele>
    <name>!ComfortHouse +* PSZ 40$</name>
    <cmt>Минск, ул. Новинковская, 8&lt;br&gt;Зазаборье. цена и наличие номеров - неизвестна</cmt>
    <desc>Минск, ул. Новинковская, 8&lt;br&gt;Зазаборье. цена и наличие номеров - неизвестна</desc>
  </wpt>
  <wpt lat="53.951572000" lon="27.532425000">
    <ele>0.000000</ele>
    <name>GH Modern +-* B- PS 40$-5k</name>
    <cmt>2-ой Марусинский переулок дом 1</cmt>
    <desc>2-ой Марусинский переулок дом 1</desc>
  </wpt>
  <wpt lat="53.935518000" lon="27.494179000">
    <ele>0.000000</ele>
    <name>Виктория Олимп Отель 4* B$ P? + NP$</name>
    <cmt>Проспект Победителей 103, Tsentralny District, 220020 Минск, Беларусь&lt;br&gt;Какая-то парковка у них есть, но если что - рядом платная стоянка</cmt>
    <desc>Проспект Победителей 103, Tsentralny District, 220020 Минск, Беларусь&lt;br&gt;Какая-то парковка у них есть, но если что - рядом платная стоянка</desc>
  </wpt>
  <wpt lat="53.899796000" lon="27.547885000">
    <ele>0.000000</ele>
    <name>?Бутик Отель Buta 5* B$ p? 6.2k(D)</name>
    <cmt>Улица Мясникова 7, Moskovsky District, 220000 Минск, Беларусь&lt;br&gt;Непонятно есть ли подземный паркинг. наружного то точно нет</cmt>
    <desc>Улица Мясникова 7, Moskovsky District, 220000 Минск, Беларусь&lt;br&gt;Непонятно есть ли подземный паркинг. наружного то точно нет</desc>
  </wpt>
  <wpt lat="53.921721000" lon="27.526618000">
    <ele>0.000000</ele>
    <name>?Виктория Отель 4* B$ P? 6.2kD</name>
    <cmt>Проспект Победителей 59, Tsentralny District, 220035 Минск, Беларусь&lt;br&gt;впритык БЦ стоит, а парковок не видно&lt;br&gt;Паркинг многоэтажный в строении рядом. на первом этаже у входа собачатник с охраной</cmt>
    <desc>Проспект Победителей 59, Tsentralny District, 220035 Минск, Беларусь&lt;br&gt;впритык БЦ стоит, а парковок не видно&lt;br&gt;Паркинг многоэтажный в строении рядом. на первом этаже у входа собачатник с охраной</desc>
  </wpt>
  <wpt lat="53.905126000" lon="27.557364000">
    <ele>0.000000</ele>
    <name>!Отель Монастырcкий 3* BB P$? 7k</name>
    <cmt>Улица Кирилла и Мефодия 6, Tsentralny District, 220030 Минск, Беларусь&lt;br&gt;старый город. Паркинг подземный.&lt;br&gt;завтрак вполне.&lt;br&gt;общее качество - очень неплох</cmt>
    <desc>Улица Кирилла и Мефодия 6, Tsentralny District, 220030 Минск, Беларусь&lt;br&gt;старый город. Паркинг подземный.&lt;br&gt;завтрак вполне.&lt;br&gt;общее качество - очень неплох</desc>
  </wpt>
  <wpt lat="53.840616000" lon="27.629399000">
    <ele>0.000000</ele>
    <name>Отель Арена Минск 3* В$ NP$200m 3.7k</name>
    <cmt>Ташкентская Улица 15, Zavodskoy District, 220077 Минск, Беларусь&lt;br&gt;Автостоянки вдоль МКАД</cmt>
    <desc>Ташкентская Улица 15, Zavodskoy District, 220077 Минск, Беларусь&lt;br&gt;Автостоянки вдоль МКАД</desc>
  </wpt>
  <wpt lat="53.908217000" lon="27.493894000">
    <ele>0.000000</ele>
    <name>Гостиница Орбита -3* B$ NP$200m 3.5k</name>
    <cmt>Проспект Пушкина 39, Frunzensky District, 220092 Минск, Беларусь&lt;br&gt;Автостоянка через квартал</cmt>
    <desc>Проспект Пушкина 39, Frunzensky District, 220092 Минск, Беларусь&lt;br&gt;Автостоянка через квартал</desc>
  </wpt>
  <wpt lat="56.275786000" lon="28.478108000">
    <ele>0.000000</ele>
    <name>Mini-hotel Ugorinka +* B$300р 3,2р ЧС 24м</name>
    <cmt>своя территория</cmt>
    <desc>своя территория</desc>
  </wpt>
  <wpt lat="53.912526000" lon="27.538240000">
    <ele>0.000000</ele>
    <name>Гостиница планета</name>
    <cmt>Большой задний двор парков ка с будкой и охраной на входе</cmt>
    <desc>Большой задний двор парков ка с будкой и охраной на входе</desc>
  </wpt>
  <wpt lat="41.701499000" lon="44.782934000">
    <ele>0.000000</ele>
    <name>хостел m42hostel Belinsky (Tamar Chovelidze) 67</name>
    <cmt>на всякий случай. 2400р.&lt;br&gt;есть номера для 2 чел. но душ, туалет общие.&lt;br&gt;есть двор, куда можно поставить мопед.&lt;br&gt;еще из плюсов -владельцырусские. приличное место.</cmt>
    <desc>на всякий случай. 2400р.&lt;br&gt;есть номера для 2 чел. но душ, туалет общие.&lt;br&gt;есть двор, куда можно поставить мопед.&lt;br&gt;еще из плюсов -владельцырусские. приличное место.</desc>
  </wpt>
  <wpt lat="59.437940000" lon="24.739406000">
    <ele>0.000000</ele>
    <name>Olematu Rüütel +* B$ PDv- 7.5k</name>
    <cmt>Kiriku Poik 4a, Центр, 10350 Таллин, Эстония&lt;br&gt;парковка в дворике закутке. никак не охраняется</cmt>
    <desc>Kiriku Poik 4a, Центр, 10350 Таллин, Эстония&lt;br&gt;парковка в дворике закутке. никак не охраняется</desc>
  </wpt>
  <wpt lat="59.437692000" lon="24.767958000">
    <ele>0.000000</ele>
    <name>Center Hotel 2* BB PDSh 4.9к</name>
    <cmt>Narva mnt 24/ Fr.R.Kreutzwaldi 2, Центр, 10120 Таллин, Эстония&lt;br&gt;Двор-Шлакбаум.</cmt>
    <desc>Narva mnt 24/ Fr.R.Kreutzwaldi 2, Центр, 10120 Таллин, Эстония&lt;br&gt;Двор-Шлакбаум.</desc>
  </wpt>
  <wpt lat="59.428771000" lon="24.774846000">
    <ele>0.000000</ele>
    <name>B&amp;B Rex, --* 2bed B- DvArZ 3.5k</name>
    <cmt>Двор, под арку с забором&lt;br&gt;Tartu mnt 62-1, Центр, 10115 Таллин, Эстония</cmt>
    <desc>Двор, под арку с забором&lt;br&gt;Tartu mnt 62-1, Центр, 10115 Таллин, Эстония</desc>
  </wpt>
  <wpt lat="59.431974000" lon="24.743174000">
    <ele>0.000000</ele>
    <name>St.Barbara 3* BB PDvVo 6,7к</name>
    <cmt>Roosikrantsi 2A, Центр, 10119 Таллин, Эстония&lt;br&gt;Поставили автоматические ворота при въезде во двор</cmt>
    <desc>Roosikrantsi 2A, Центр, 10119 Таллин, Эстония&lt;br&gt;Поставили автоматические ворота при въезде во двор</desc>
  </wpt>
  <wpt lat="59.441317000" lon="24.738730000">
    <ele>0.000000</ele>
    <name>Economy Hotel +-* BB PZ 3.8k</name>
    <cmt>Kopli tee 2 C, Пыхья-Таллинн, 10412 Таллин, Эстония&lt;br&gt;Зазаборье с замком навесным</cmt>
    <desc>Kopli tee 2 C, Пыхья-Таллинн, 10412 Таллин, Эстония&lt;br&gt;Зазаборье с замком навесным</desc>
  </wpt>
  <wpt lat="59.444426000" lon="24.726352000">
    <ele>0.000000</ele>
    <name>!Vabriku Hostel +-* B- PSZab 3.8k</name>
    <cmt>Vabriku 24, Пыхья-Таллинн, 15010 Таллин, Эстония&lt;br&gt;Суровый сплошной забор с автоворотами</cmt>
    <desc>Vabriku 24, Пыхья-Таллинн, 15010 Таллин, Эстония&lt;br&gt;Суровый сплошной забор с автоворотами</desc>
  </wpt>
  <wpt lat="59.417781000" lon="24.725933000">
    <ele>0.000000</ele>
    <name>!*Nepi Hotell +-* B$ PLO(PS)</name>
    <cmt>Nepi 10, Кристийне, 11312 Таллин, Эстония&lt;br&gt;открытая территория в частном секторе</cmt>
    <desc>Nepi 10, Кристийне, 11312 Таллин, Эстония&lt;br&gt;открытая территория в частном секторе</desc>
  </wpt>
  <wpt lat="59.430646000" lon="24.633370000">
    <ele>0.000000</ele>
    <name>Lee Apartments +* B- PSZ 3.1k</name>
    <cmt>Lee 12, Хааберсти, 13521 Таллин, Эстония&lt;br&gt;легкое зазаборье</cmt>
    <desc>Lee 12, Хааберсти, 13521 Таллин, Эстония&lt;br&gt;легкое зазаборье</desc>
  </wpt>
  <wpt lat="41.709896000" lon="44.800092000">
    <ele>0.000000</ele>
    <name>At Metro 3-4к N 3*</name>
    <cmt>Tsinamdzgvrishvili Street 90, 0102 Тбилиси, Грузия;&lt;br&gt;PPL;&lt;br&gt;Без Завтрака</cmt>
    <desc>Tsinamdzgvrishvili Street 90, 0102 Тбилиси, Грузия;&lt;br&gt;PPL;&lt;br&gt;Без Завтрака</desc>
  </wpt>
  <wpt lat="41.692271000" lon="44.812200000">
    <ele>0.000000</ele>
    <name>Nata 2.5-4к BB 3*</name>
    <cmt>Dutu Megreli Street 2, 0103 Тбилиси, Грузия;&lt;br&gt;PPL;&lt;br&gt;BB</cmt>
    <desc>Dutu Megreli Street 2, 0103 Тбилиси, Грузия;&lt;br&gt;PPL;&lt;br&gt;BB</desc>
  </wpt>
  <wpt lat="41.731591000" lon="44.772406000">
    <ele>0.000000</ele>
    <name>Hotel Idilia ~3k BB 3*</name>
    <cmt>Gotua str. 20b, 0160 Тбилиси, Грузия&lt;br&gt;частная парковка</cmt>
    <desc>Gotua str. 20b, 0160 Тбилиси, Грузия&lt;br&gt;частная парковка</desc>
  </wpt>
  <wpt lat="41.709980000" lon="44.797466000">
    <ele>0.000000</ele>
    <name>Sky Guest House 1.5k N -s</name>
    <cmt>Agmashenebeli Avenue 77, 0102 Тбилиси, Грузия;&lt;br&gt;PPL;&lt;br&gt;Зактрак 370р;&lt;br&gt;полный шлак но задешего</cmt>
    <desc>Agmashenebeli Avenue 77, 0102 Тбилиси, Грузия;&lt;br&gt;PPL;&lt;br&gt;Зактрак 370р;&lt;br&gt;полный шлак но задешего</desc>
  </wpt>
  <wpt lat="41.693222000" lon="44.803576000">
    <ele>0.000000</ele>
    <name>Rooms Guest House 1.7k N 0s</name>
    <cmt>Kote Afkhazi street 27/15 , 0105 Тбилиси, Грузия;&lt;br&gt;PPL;&lt;br&gt;Без завтрака</cmt>
    <desc>Kote Afkhazi street 27/15 , 0105 Тбилиси, Грузия;&lt;br&gt;PPL;&lt;br&gt;Без завтрака</desc>
  </wpt>
  <wpt lat="41.703632000" lon="44.805036000">
    <ele>0.000000</ele>
    <name>Omari Guest House 1.5k 0s</name>
    <cmt>Tsinamdzgvrishvili Street 16, 0102 Тбилиси, Грузия&lt;br&gt;полный шлак, но:&lt;br&gt;внутренний дворик</cmt>
    <desc>Tsinamdzgvrishvili Street 16, 0102 Тбилиси, Грузия&lt;br&gt;полный шлак, но:&lt;br&gt;внутренний дворик</desc>
  </wpt>
  <wpt lat="41.689623000" lon="44.807490000">
    <ele>0.000000</ele>
    <name>Baits 2-3к 3s</name>
    <cmt>Tumaniani Lane 2/4, 0105 Тбилиси, Грузия&lt;br&gt;частная парковка, вроде внутренний двор, но не накрываемый</cmt>
    <desc>Tumaniani Lane 2/4, 0105 Тбилиси, Грузия&lt;br&gt;частная парковка, вроде внутренний двор, но не накрываемый</desc>
  </wpt>
  <wpt lat="41.687277000" lon="44.813436000">
    <ele>0.000000</ele>
    <name>Lea Guest House 1,5к</name>
    <cmt>Grishashvili street 25, 0105 Тбилиси, Грузия&lt;br&gt;частная парковка</cmt>
    <desc>Grishashvili street 25, 0105 Тбилиси, Грузия&lt;br&gt;частная парковка</desc>
  </wpt>
  <wpt lat="41.692034000" lon="44.874988000">
    <ele>0.000000</ele>
    <name>Chveni Sakhli 2-2,5к +s</name>
    <cmt>Aerodromi Settlement XI Street 9a, 0116 Тбилиси, Грузия&lt;br&gt;внутренний дворик (частная парковка)</cmt>
    <desc>Aerodromi Settlement XI Street 9a, 0116 Тбилиси, Грузия&lt;br&gt;внутренний дворик (частная парковка)</desc>
  </wpt>
  <wpt lat="41.689458000" lon="44.806143000">
    <ele>0.000000</ele>
    <name>Hotel Kalanga 3k 3s</name>
    <cmt>Bethlehem Street 11, 0105 Тбилиси, Грузия&lt;br&gt;частная парковка</cmt>
    <desc>Bethlehem Street 11, 0105 Тбилиси, Грузия&lt;br&gt;частная парковка</desc>
  </wpt>
  <wpt lat="41.682712000" lon="44.870980000">
    <ele>0.000000</ele>
    <name>Hotel Batoni 2,4-3,7к +s</name>
    <cmt>r.mamisashvili#1, 0152 Тбилиси, Грузия&lt;br&gt;внутр терр</cmt>
    <desc>r.mamisashvili#1, 0152 Тбилиси, Грузия&lt;br&gt;внутр терр</desc>
  </wpt>
  <wpt lat="41.693316000" lon="44.818130000">
    <ele>0.000000</ele>
    <name>My House Hote 3k BB +-s</name>
    <cmt>Sevani Street 16, 0103 Тбилиси, Грузия&lt;br&gt;дворик PP</cmt>
    <desc>Sevani Street 16, 0103 Тбилиси, Грузия&lt;br&gt;дворик PP</desc>
  </wpt>
  <wpt lat="41.716767000" lon="44.767222000">
    <ele>0.000000</ele>
    <name>Hotel Dalida 2.7-3k BB +*</name>
    <cmt>Likhauri Street 6a, 0160 Тбилиси, Грузия&lt;br&gt;PP</cmt>
    <desc>Likhauri Street 6a, 0160 Тбилиси, Грузия&lt;br&gt;PP</desc>
  </wpt>
  <wpt lat="41.695151000" lon="44.812755000">
    <ele>0.000000</ele>
    <name>King Edward Hotel 2-3k BB +*</name>
    <cmt>Cuckiridze Street 13, 0103 Тбилиси, Грузия&lt;br&gt;PP</cmt>
    <desc>Cuckiridze Street 13, 0103 Тбилиси, Грузия&lt;br&gt;PP</desc>
  </wpt>
  <wpt lat="41.696899000" lon="44.813493000">
    <ele>0.000000</ele>
    <name>Cordelia Hotel 1.5-2.5 BB +*</name>
    <cmt>Meskhishvili 21, 0103 Тбилиси, Грузия</cmt>
    <desc>Meskhishvili 21, 0103 Тбилиси, Грузия</desc>
  </wpt>
  <wpt lat="41.695928000" lon="44.805548000">
    <ele>0.000000</ele>
    <name>Babilina 3k BB +*</name>
    <cmt>Shota Nishnianidze Street 31, 0105 Тбилиси, Грузия;&lt;br&gt;PPL;&lt;br&gt;BB</cmt>
    <desc>Shota Nishnianidze Street 31, 0105 Тбилиси, Грузия;&lt;br&gt;PPL;&lt;br&gt;BB</desc>
  </wpt>
  <wpt lat="41.689386000" lon="44.791018000">
    <ele>0.000000</ele>
    <name>GstHs Castlerock 3.2-3.7k BB +*</name>
    <cmt>kojori drive 1/4, 0127 Тбилиси, Грузия&lt;br&gt;PP</cmt>
    <desc>kojori drive 1/4, 0127 Тбилиси, Грузия&lt;br&gt;PP</desc>
  </wpt>
  <wpt lat="41.691790000" lon="44.806114000">
    <ele>0.000000</ele>
    <name>Hotel VIP 3.5 BB 2*</name>
    <cmt>Улица Леселидзе 31 , 0105 Тбилиси, Грузия&lt;br&gt;PP</cmt>
    <desc>Улица Леселидзе 31 , 0105 Тбилиси, Грузия&lt;br&gt;PP</desc>
  </wpt>
  <wpt lat="41.688868000" lon="44.837584000">
    <ele>0.000000</ele>
    <name>Flamingo Group Hotel 3.5-4k BB 3*</name>
    <cmt>Atskuri # 27, 0144 Тбилиси, Грузия&lt;br&gt;PPN</cmt>
    <desc>Atskuri # 27, 0144 Тбилиси, Грузия&lt;br&gt;PPN</desc>
  </wpt>
  <wpt lat="41.691087000" lon="44.825498000">
    <ele>0.000000</ele>
    <name>Vip Ele Hotel 3.3k BB +*</name>
    <cmt>Akhmeta street 10, 0105 Тбилиси, Грузия&lt;br&gt;PPL</cmt>
    <desc>Akhmeta street 10, 0105 Тбилиси, Грузия&lt;br&gt;PPL</desc>
  </wpt>
  <wpt lat="41.693518000" lon="44.813994000">
    <ele>0.000000</ele>
    <name>Qeroli Hotel 3.7-4.2 BB 3*</name>
    <cmt>Armazi Street 8, 0103 Тбилиси, Грузия&lt;br&gt;PPL</cmt>
    <desc>Armazi Street 8, 0103 Тбилиси, Грузия&lt;br&gt;PPL</desc>
  </wpt>
  <wpt lat="41.705937000" lon="44.799741000">
    <ele>0.000000</ele>
    <name>Kope Hotel 3.5-4k BB 3*</name>
    <cmt>Agmashenebeli Avenue 52, 0102 Тбилиси, Грузия&lt;br&gt;PPL</cmt>
    <desc>Agmashenebeli Avenue 52, 0102 Тбилиси, Грузия&lt;br&gt;PPL</desc>
  </wpt>
  <wpt lat="41.702745000" lon="44.808801000">
    <ele>0.000000</ele>
    <name>Hotel Corner 3.8k BB 3*</name>
    <cmt>Street Mose Toidze 16/12, 0102 Тбилиси, Грузия&lt;br&gt;PPL</cmt>
    <desc>Street Mose Toidze 16/12, 0102 Тбилиси, Грузия&lt;br&gt;PPL</desc>
  </wpt>
  <wpt lat="41.693460000" lon="44.814008000">
    <ele>0.000000</ele>
    <name>Armazi Palace 3.2-4.2 BB 3*</name>
    <cmt>Улица Армази 8, 0103 Тбилиси, Грузия&lt;br&gt;PPL</cmt>
    <desc>Улица Армази 8, 0103 Тбилиси, Грузия&lt;br&gt;PPL</desc>
  </wpt>
  <wpt lat="41.690925000" lon="44.812674000">
    <ele>0.000000</ele>
    <name>Hotel Kopala 4.5k BB 4*</name>
    <cmt>Chekhov Street 8/10, 0103 Тбилиси, Грузия&lt;br&gt;PPL</cmt>
    <desc>Chekhov Street 8/10, 0103 Тбилиси, Грузия&lt;br&gt;PPL</desc>
  </wpt>
  <wpt lat="41.651216000" lon="41.640710000">
    <ele>0.000000</ele>
    <name>Batumi Home Guest House 2,4 -3</name>
    <cmt>M. Kostava Street 22, Батуми, Грузия;&lt;br&gt;41.651231, 41.640702&lt;br&gt;завтрак отдельно&lt;br&gt;есть двор</cmt>
    <desc>M. Kostava Street 22, Батуми, Грузия;&lt;br&gt;41.651231, 41.640702&lt;br&gt;завтрак отдельно&lt;br&gt;есть двор</desc>
  </wpt>
  <wpt lat="41.639996000" lon="41.634949000">
    <ele>0.000000</ele>
    <name>Guesthouse in Batumi 1.5-2</name>
    <cmt>97 Melikishvili Str., Batumi, Грузия;&lt;br&gt;41.639960, 41.634981&lt;br&gt;нет завтрака&lt;br&gt;есть двор</cmt>
    <desc>97 Melikishvili Str., Batumi, Грузия;&lt;br&gt;41.639960, 41.634981&lt;br&gt;нет завтрака&lt;br&gt;есть двор</desc>
  </wpt>
  <wpt lat="41.680008000" lon="41.699542000">
    <ele>0.000000</ele>
    <name>U Shoreni 1.9-2.5</name>
    <cmt>Makhindjauri, Djinchardze str.7, 6001 Батуми, Грузия;&lt;br&gt;41.680024, 41.699508&lt;br&gt;чуть дальше от батуми. &lt;br&gt;парковка</cmt>
    <desc>Makhindjauri, Djinchardze str.7, 6001 Батуми, Грузия;&lt;br&gt;41.680024, 41.699508&lt;br&gt;чуть дальше от батуми. &lt;br&gt;парковка</desc>
  </wpt>
  <wpt lat="41.645390000" lon="41.632454000">
    <ele>0.000000</ele>
    <name>Talihouse Guest House 3,1</name>
    <cmt>Vakhtang Gorgasali Street 52,  Батуми, Грузия;&lt;br&gt;41.645392, 41.632340&lt;br&gt;есть двор/парковка&lt;br&gt;завтрак отдельно</cmt>
    <desc>Vakhtang Gorgasali Street 52,  Батуми, Грузия;&lt;br&gt;41.645392, 41.632340&lt;br&gt;есть двор/парковка&lt;br&gt;завтрак отдельно</desc>
  </wpt>
  <wpt lat="41.612493000" lon="41.613073000">
    <ele>0.000000</ele>
    <name>Batumi hotel on Kakhaberi street,2,9-3,2</name>
    <cmt>Kakhaberi Street 3, Batumi, Грузия;&lt;br&gt;парковка&lt;br&gt;завтрак отдельно</cmt>
    <desc>Kakhaberi Street 3, Batumi, Грузия;&lt;br&gt;парковка&lt;br&gt;завтрак отдельно</desc>
  </wpt>
  <wpt lat="41.645106000" lon="41.641064000">
    <ele>0.000000</ele>
    <name>Guest house Eka 2,1</name>
    <cmt>Pereulok Beridze 18 , Грузия;&lt;br&gt;41.645087, 41.641048&lt;br&gt;парковка/двор&lt;br&gt;без завтрака</cmt>
    <desc>Pereulok Beridze 18 , Грузия;&lt;br&gt;41.645087, 41.641048&lt;br&gt;парковка/двор&lt;br&gt;без завтрака</desc>
  </wpt>
  <wpt lat="41.642758000" lon="41.650323000">
    <ele>0.000000</ele>
    <name>Paradise Hotel 3,3-3,7</name>
    <cmt>Shavsheti Street 36, Батуми, Грузия&lt;br&gt;парковка&lt;br&gt;завтрак включен</cmt>
    <desc>Shavsheti Street 36, Батуми, Грузия&lt;br&gt;парковка&lt;br&gt;завтрак включен</desc>
  </wpt>
  <wpt lat="41.637064000" lon="41.625620000">
    <ele>0.000000</ele>
    <name>Four Seasons Guest House 3,5 - 4</name>
    <cmt>Giorgi Brtskinvale Street 138, 6000 Батуми, Грузия;&lt;br&gt;41.637068, 41.625655&lt;br&gt;скорее всего парковка&lt;br&gt;завтрак</cmt>
    <desc>Giorgi Brtskinvale Street 138, 6000 Батуми, Грузия;&lt;br&gt;41.637068, 41.625655&lt;br&gt;скорее всего парковка&lt;br&gt;завтрак</desc>
  </wpt>
  <wpt lat="41.633170000" lon="41.609247000">
    <ele>0.000000</ele>
    <name>Hotel Eurasia 3,8 -4</name>
    <cmt>Inasaridze street, lane I, 4, Batumi 6004, Грузия;&lt;br&gt;41.633044, 41.609219&lt;br&gt;парковка&lt;br&gt;завтрак</cmt>
    <desc>Inasaridze street, lane I, 4, Batumi 6004, Грузия;&lt;br&gt;41.633044, 41.609219&lt;br&gt;парковка&lt;br&gt;завтрак</desc>
  </wpt>
  <wpt lat="41.629109000" lon="41.605957000">
    <ele>0.000000</ele>
    <name>Black Sea Pearl Hotel  3,5-4</name>
    <cmt>Angisa Street 65, 6000 Батуми, Грузия &lt;br&gt;парковка&lt;br&gt;завтрак</cmt>
    <desc>Angisa Street 65, 6000 Батуми, Грузия &lt;br&gt;парковка&lt;br&gt;завтрак</desc>
  </wpt>
  <wpt lat="41.632795000" lon="41.612252000">
    <ele>0.000000</ele>
    <name>Hotel Premium Palace 3,8-4</name>
    <cmt>Tbel Abuseridze 15, 6001 Батуми, Грузия;&lt;br&gt;41.632797, 41.612276&lt;br&gt;парковка (?)&lt;br&gt;завтрак</cmt>
    <desc>Tbel Abuseridze 15, 6001 Батуми, Грузия;&lt;br&gt;41.632797, 41.612276&lt;br&gt;парковка (?)&lt;br&gt;завтрак</desc>
  </wpt>
  <wpt lat="42.249106000" lon="42.702828000">
    <ele>0.000000</ele>
    <name>адреса в Кутаиси</name>
    <cmt>та же хрень что в батуми - не отресованы дома на карте. могут быть неточности</cmt>
    <desc>та же хрень что в батуми - не отресованы дома на карте. могут быть неточности</desc>
  </wpt>
  <wpt lat="42.267790000" lon="42.706644000">
    <ele>0.000000</ele>
    <name>Kiev Kutaisi Hotel  1,5</name>
    <cmt>Tamar Mepe Street 25, 4600 Кутаиси, Грузия;&lt;br&gt;42.267746, 42.706691&lt;br&gt;заявлена парковка, по фото не ясно&lt;br&gt;завтрак 255р</cmt>
    <desc>Tamar Mepe Street 25, 4600 Кутаиси, Грузия;&lt;br&gt;42.267746, 42.706691&lt;br&gt;заявлена парковка, по фото не ясно&lt;br&gt;завтрак 255р</desc>
  </wpt>
  <wpt lat="42.264316000" lon="42.713116000">
    <ele>0.000000</ele>
    <name>Hotel Kutaisi Globus 1,5</name>
    <cmt>Solomon Pirveli Street 14, 4600 Кутаиси, Грузия;&lt;br&gt;парковка заявлена, по фото не ясно&lt;br&gt;завтрак 255р</cmt>
    <desc>Solomon Pirveli Street 14, 4600 Кутаиси, Грузия;&lt;br&gt;парковка заявлена, по фото не ясно&lt;br&gt;завтрак 255р</desc>
  </wpt>
  <wpt lat="42.267445000" lon="42.703246000">
    <ele>0.000000</ele>
    <name>Hostel Paradise Road 1,5</name>
    <cmt>Tsereteli street 4-th lane, №1, 4600 Кутаиси, Грузия;&lt;br&gt;42°16'02.9&quot;N 42°42'11.8&quot;E42.267458, 42.703284&lt;br&gt;парковка заявлена.&lt;br&gt;завтрак 179р&lt;br&gt;есть номер с ванной</cmt>
    <desc>Tsereteli street 4-th lane, №1, 4600 Кутаиси, Грузия;&lt;br&gt;42°16'02.9&quot;N 42°42'11.8&quot;E42.267458, 42.703284&lt;br&gt;парковка заявлена.&lt;br&gt;завтрак 179р&lt;br&gt;есть номер с ванной</desc>
  </wpt>
  <wpt lat="42.271444000" lon="42.711939000">
    <ele>0.000000</ele>
    <name>Gelati Guest House 1,5</name>
    <cmt>26 Maisi Street 4, Lane 2, 4600 Кутаиси, Грузия ;&lt;br&gt;42°16'17.2&quot;N 42°42'43.0&quot;E42.271434, 42.711935&lt;br&gt;парковка заявлена&lt;br&gt;душ не во всех номерах&lt;br&gt;без завтрака</cmt>
    <desc>26 Maisi Street 4, Lane 2, 4600 Кутаиси, Грузия ;&lt;br&gt;42°16'17.2&quot;N 42°42'43.0&quot;E42.271434, 42.711935&lt;br&gt;парковка заявлена&lt;br&gt;душ не во всех номерах&lt;br&gt;без завтрака</desc>
  </wpt>
  <wpt lat="42.273177000" lon="42.705553000">
    <ele>0.000000</ele>
    <name>Edemi</name>
    <cmt>Brosse street 9, 4600 Кутаиси, Грузия;&lt;br&gt;42°16'23.4&quot;N 42°42'19.9&quot;E42.273163, 42.705534&lt;br&gt;НЕТ ПАРКОВКИ</cmt>
    <desc>Brosse street 9, 4600 Кутаиси, Грузия;&lt;br&gt;42°16'23.4&quot;N 42°42'19.9&quot;E42.273163, 42.705534&lt;br&gt;НЕТ ПАРКОВКИ</desc>
  </wpt>
  <wpt lat="42.265817000" lon="42.712561000">
    <ele>0.000000</ele>
    <name>Edemi Hotel 1,5-2</name>
    <cmt>Solomon the First Street 31, 4600 Кутаиси, Грузия;&lt;br&gt;42°15'56.9&quot;N 42°42'45.3&quot;E42.265801, 42.712574&lt;br&gt;парковка&lt;br&gt;завтрак 255</cmt>
    <desc>Solomon the First Street 31, 4600 Кутаиси, Грузия;&lt;br&gt;42°15'56.9&quot;N 42°42'45.3&quot;E42.265801, 42.712574&lt;br&gt;парковка&lt;br&gt;завтрак 255</desc>
  </wpt>
  <wpt lat="42.254038000" lon="42.665749000">
    <ele>0.000000</ele>
    <name>B&amp;B Europa Hotel 1,7-2</name>
    <cmt>Gugunava 20 A, 4600 Кутаиси, Грузия;&lt;br&gt;42°15'14.7&quot;N 42°39'56.4&quot;E42.254076, 42.665652&lt;br&gt;парковка завлена&lt;br&gt;завтрак</cmt>
    <desc>Gugunava 20 A, 4600 Кутаиси, Грузия;&lt;br&gt;42°15'14.7&quot;N 42°39'56.4&quot;E42.254076, 42.665652&lt;br&gt;парковка завлена&lt;br&gt;завтрак</desc>
  </wpt>
  <wpt lat="42.253755000" lon="42.665126000">
    <ele>0.000000</ele>
    <name>Lux Hotel 2,0</name>
    <cmt>Gugunava Street 20, Kutaisi 4600, Грузия&lt;br&gt;парковка не охраняется</cmt>
    <desc>Gugunava Street 20, Kutaisi 4600, Грузия&lt;br&gt;парковка не охраняется</desc>
  </wpt>
  <wpt lat="42.272891000" lon="42.697112000">
    <ele>0.000000</ele>
    <name>Hotel Elegant 2,1</name>
    <cmt>Tician Tabidze Street 31, 4600 Кутаиси, Грузия;&lt;br&gt;42°16'22.4&quot;N 42°41'49.6&quot;E42.272892, 42.697113&lt;br&gt;парковка заявлена&lt;br&gt;завтрака нет</cmt>
    <desc>Tician Tabidze Street 31, 4600 Кутаиси, Грузия;&lt;br&gt;42°16'22.4&quot;N 42°41'49.6&quot;E42.272892, 42.697113&lt;br&gt;парковка заявлена&lt;br&gt;завтрака нет</desc>
  </wpt>
  <wpt lat="42.272899000" lon="42.697514000">
    <ele>0.000000</ele>
    <name>Hotel Beka</name>
    <cmt>St .Debi Ishxnelebi N 26, 4600 Кутаиси, Грузия;&lt;br&gt;парковка&lt;br&gt;завтрак 1200р</cmt>
    <desc>St .Debi Ishxnelebi N 26, 4600 Кутаиси, Грузия;&lt;br&gt;парковка&lt;br&gt;завтрак 1200р</desc>
  </wpt>
  <wpt lat="42.273143000" lon="42.697495000">
    <ele>0.000000</ele>
    <name>Guest House Nona</name>
    <cmt>Debi Ishkhnelebi Street 28, 4600 Кутаиси, Грузия&lt;br&gt;парковка</cmt>
    <desc>Debi Ishkhnelebi Street 28, 4600 Кутаиси, Грузия&lt;br&gt;парковка</desc>
  </wpt>
  <wpt lat="42.273086000" lon="42.697037000">
    <ele>0.000000</ele>
    <name>Hotel Gora</name>
    <cmt>Debi Ishkhneli Street 22, 4600 Кутаиси, Грузия;&lt;br&gt;парковка</cmt>
    <desc>Debi Ishkhneli Street 22, 4600 Кутаиси, Грузия;&lt;br&gt;парковка</desc>
  </wpt>
  <wpt lat="42.265224000" lon="42.709903000">
    <ele>0.000000</ele>
    <name>Diplomati Hotel 1,8-2</name>
    <cmt>Tician Tabidze Street 31, 4600 Кутаиси, Грузия;&lt;br&gt;42°15'55.0&quot;N 42°42'35.6&quot;E42.265284, 42.709885&lt;br&gt;парковка заявлена, но может неохраняемая&lt;br&gt;завтрак 204р</cmt>
    <desc>Tician Tabidze Street 31, 4600 Кутаиси, Грузия;&lt;br&gt;42°15'55.0&quot;N 42°42'35.6&quot;E42.265284, 42.709885&lt;br&gt;парковка заявлена, но может неохраняемая&lt;br&gt;завтрак 204р</desc>
  </wpt>
  <wpt lat="43.047636000" lon="42.730824000">
    <ele>0.000000</ele>
    <name>Hotel Old House 2,8</name>
    <cmt>Lanchvali street 1, 3200 Местия, Грузия</cmt>
    <desc>Lanchvali street 1, 3200 Местия, Грузия</desc>
  </wpt>
  <wpt lat="43.046948000" lon="42.731406000">
    <ele>0.000000</ele>
    <name>Guest House Goshtela 2,0</name>
    <cmt>v.goshteliani 23, 3108 Местия, Грузия&lt;br&gt;парковка&lt;br&gt;завтрак</cmt>
    <desc>v.goshteliani 23, 3108 Местия, Грузия&lt;br&gt;парковка&lt;br&gt;завтрак</desc>
  </wpt>
  <wpt lat="43.046419000" lon="42.731345000">
    <ele>0.000000</ele>
    <name>Guesthouse Ninia 1,7</name>
    <cmt>Beqnu Khergiani Street, 7, 3200 Местия, Грузия &lt;br&gt;парковка&lt;br&gt;завтрак 255</cmt>
    <desc>Beqnu Khergiani Street, 7, 3200 Местия, Грузия &lt;br&gt;парковка&lt;br&gt;завтрак 255</desc>
  </wpt>
  <wpt lat="43.046985000" lon="42.732187000">
    <ele>0.000000</ele>
    <name>Lileo Hotel</name>
    <cmt>Zura Phaliani Street 9, 9880 Местия, Грузия</cmt>
    <desc>Zura Phaliani Street 9, 9880 Местия, Грузия</desc>
  </wpt>
  <wpt lat="43.046882000" lon="42.732277000">
    <ele>0.000000</ele>
    <name>Svan House In Mestia 2,1</name>
    <cmt>St. Vakhtang Goshteliani 15 A, 3200 Местия, Грузия&lt;br&gt;завтрак&lt;br&gt;парковка</cmt>
    <desc>St. Vakhtang Goshteliani 15 A, 3200 Местия, Грузия&lt;br&gt;завтрак&lt;br&gt;парковка</desc>
  </wpt>
  <wpt lat="43.043010000" lon="42.726560000">
    <ele>0.000000</ele>
    <name>Marina Guest House1,2</name>
    <cmt>Ioseliani Kucha 2, 3200 Местия, Грузия&lt;br&gt;парковка&lt;br&gt;завтрак 255</cmt>
    <desc>Ioseliani Kucha 2, 3200 Местия, Грузия&lt;br&gt;парковка&lt;br&gt;завтрак 255</desc>
  </wpt>
  <wpt lat="43.049100000" lon="42.731535000">
    <ele>0.000000</ele>
    <name>Old Mestia Hostel</name>
    <cmt>Lanchvali Street 8A, 0160 Местия, Грузия &lt;br&gt;Парковка&lt;br&gt;общая ванная&lt;br&gt;завтрак 255р</cmt>
    <desc>Lanchvali Street 8A, 0160 Местия, Грузия &lt;br&gt;Парковка&lt;br&gt;общая ванная&lt;br&gt;завтрак 255р</desc>
  </wpt>
  <wpt lat="43.045605000" lon="42.733104000">
    <ele>0.000000</ele>
    <name>Guest House Sandro, 1,2</name>
    <cmt>Davida Agmashenebeli, 2, 3200 Местия, Грузия&lt;br&gt;парковка невнятная&lt;br&gt;ванная/туалет скорее всего общие</cmt>
    <desc>Davida Agmashenebeli, 2, 3200 Местия, Грузия&lt;br&gt;парковка невнятная&lt;br&gt;ванная/туалет скорее всего общие</desc>
  </wpt>
  <wpt lat="43.045307000" lon="42.729896000">
    <ele>0.000000</ele>
    <name>Guesthouse Mestia 32 , 1,2-2,3</name>
    <cmt>Queen Tamar st 32, 3200 Местия, Грузия;&lt;br&gt;парковка&lt;br&gt;завтрак 380р</cmt>
    <desc>Queen Tamar st 32, 3200 Местия, Грузия;&lt;br&gt;парковка&lt;br&gt;завтрак 380р</desc>
  </wpt>
  <wpt lat="43.045115000" lon="42.729000000">
    <ele>0.000000</ele>
    <name>Guesthouse Edelweiss 4,6</name>
    <cmt>Queen Tamari Street 20, 3200 Местия, Грузия ;&lt;br&gt;парковка&lt;br&gt;Завтрак 255р</cmt>
    <desc>Queen Tamari Street 20, 3200 Местия, Грузия ;&lt;br&gt;парковка&lt;br&gt;Завтрак 255р</desc>
  </wpt>
  <wpt lat="43.044711000" lon="42.727533000">
    <ele>0.000000</ele>
    <name>Hotel Svaneti 3,3 -3,8</name>
    <cmt>Queen Tamari Street 5, 3200 Местия, Грузия;&lt;br&gt;парковка&lt;br&gt;завтрак</cmt>
    <desc>Queen Tamari Street 5, 3200 Местия, Грузия;&lt;br&gt;парковка&lt;br&gt;завтрак</desc>
  </wpt>
  <wpt lat="43.044070000" lon="42.724127000">
    <ele>0.000000</ele>
    <name>Hotel SVAN-SKI 1,5-2,1</name>
    <cmt>8 seti square, 3200 Местия, Грузия;&lt;br&gt;парковка</cmt>
    <desc>8 seti square, 3200 Местия, Грузия;&lt;br&gt;парковка</desc>
  </wpt>
  <wpt lat="43.042516000" lon="42.724993000">
    <ele>0.000000</ele>
    <name>Hotel Old Seti</name>
    <cmt>Japaridze str. N11, 3300 Местия, Грузия&lt;br&gt;парковка</cmt>
    <desc>Japaridze str. N11, 3300 Местия, Грузия&lt;br&gt;парковка</desc>
  </wpt>
  <wpt lat="43.042720000" lon="42.726313000">
    <ele>0.000000</ele>
    <name>Sweetnight 1,2-1,7</name>
    <cmt>Japaridze Str. 4, 3200 Местия, Грузия;&lt;br&gt;парковка&lt;br&gt;завтрак</cmt>
    <desc>Japaridze Str. 4, 3200 Местия, Грузия;&lt;br&gt;парковка&lt;br&gt;завтрак</desc>
  </wpt>
  <wpt lat="43.042602000" lon="42.723395000">
    <ele>0.000000</ele>
    <name>Natali Guest House 1,2</name>
    <cmt>Gabliani Street 2, 3200 Местия, Грузия&lt;br&gt;парковка заявлена&lt;br&gt;завтрака нет</cmt>
    <desc>Gabliani Street 2, 3200 Местия, Грузия&lt;br&gt;парковка заявлена&lt;br&gt;завтрака нет</desc>
  </wpt>
  <wpt lat="43.043327000" lon="42.721302000">
    <ele>0.000000</ele>
    <name>Guest House Kaldani 1,1</name>
    <cmt>Betlemi Alley 13, 3200 Местия, Грузия&lt;br&gt;с пароквкой ну ясно&lt;br&gt;завтрак 255р&lt;br&gt;с ванной неясно</cmt>
    <desc>Betlemi Alley 13, 3200 Местия, Грузия&lt;br&gt;с пароквкой ну ясно&lt;br&gt;завтрак 255р&lt;br&gt;с ванной неясно</desc>
  </wpt>
  <wpt lat="43.043527000" lon="42.719012000">
    <ele>0.000000</ele>
    <name>Koka Guest House 1,2</name>
    <cmt>Betlemi Alley 4, 3200 Местия, Грузия;&lt;br&gt;какая-то парковка&lt;br&gt;завтрак 255р</cmt>
    <desc>Betlemi Alley 4, 3200 Местия, Грузия;&lt;br&gt;какая-то парковка&lt;br&gt;завтрак 255р</desc>
  </wpt>
  <wpt lat="43.042692000" lon="42.717982000">
    <ele>0.000000</ele>
    <name>Villa Mestia Hotel 2,1-3</name>
    <cmt>Erekle Parjiani Street 7, 3200 Местия, Грузия;&lt;br&gt;парковка&lt;br&gt;завтрак</cmt>
    <desc>Erekle Parjiani Street 7, 3200 Местия, Грузия;&lt;br&gt;парковка&lt;br&gt;завтрак</desc>
  </wpt>
  <wpt lat="43.042214000" lon="42.719597000">
    <ele>0.000000</ele>
    <name>Villa Gabliani</name>
    <cmt>Gabliani Street 20, 3200 Местия, Грузия &lt;br&gt;крайний вариант&lt;br&gt;все общее, нет двуспальных кроватей</cmt>
    <desc>Gabliani Street 20, 3200 Местия, Грузия &lt;br&gt;крайний вариант&lt;br&gt;все общее, нет двуспальных кроватей</desc>
  </wpt>
  <wpt lat="43.042390000" lon="42.718513000">
    <ele>0.000000</ele>
    <name>Nino Ratiani's Guesthouse 1,1-2,5</name>
    <cmt>Jondo Khaptani Street 1, 3200 Местия, Грузия;&lt;br&gt;парковка&lt;br&gt;номер за 2,5 с ванной&lt;br&gt;завтрак 255р</cmt>
    <desc>Jondo Khaptani Street 1, 3200 Местия, Грузия;&lt;br&gt;парковка&lt;br&gt;номер за 2,5 с ванной&lt;br&gt;завтрак 255р</desc>
  </wpt>
  <wpt lat="43.042469000" lon="42.716678000">
    <ele>0.000000</ele>
    <name>Hotel Tetnuldi 5 -7</name>
    <cmt>Margiani Street 9, 3200 Местия, Грузия &lt;br&gt;парковка&lt;br&gt;завтрак</cmt>
    <desc>Margiani Street 9, 3200 Местия, Грузия &lt;br&gt;парковка&lt;br&gt;завтрак</desc>
  </wpt>
  <wpt lat="43.042508000" lon="42.716872000">
    <ele>0.000000</ele>
    <name>Hotel Chubu</name>
    <cmt>Erekle Parjiani Street 17, 3200 Местия, Грузия &lt;br&gt;цена неизвестна&lt;br&gt;парковка</cmt>
    <desc>Erekle Parjiani Street 17, 3200 Местия, Грузия &lt;br&gt;цена неизвестна&lt;br&gt;парковка</desc>
  </wpt>
  <wpt lat="45.103516000" lon="35.437002000">
    <ele>0.000000</ele>
    <name>Ангел +* BB 2.5к</name>
    <cmt>улица Грина 2, 98181 Береговое, Крым</cmt>
    <desc>улица Грина 2, 98181 Береговое, Крым</desc>
  </wpt>
  <wpt lat="45.036443000" lon="35.381207000">
    <ele>0.000000</ele>
    <name>Бульварная Горка +* BB 3.8k</name>
    <cmt>5 ulitsa 3-go Kavaleriyskogo Korpusa, 98000 Феодосия, Крым&lt;br&gt;PP огороженная территория</cmt>
    <desc>5 ulitsa 3-go Kavaleriyskogo Korpusa, 98000 Феодосия, Крым&lt;br&gt;PP огороженная территория</desc>
  </wpt>
  <wpt lat="45.086066000" lon="35.423269000">
    <ele>0.000000</ele>
    <name>KamaPol 0* BB 1.8-2.5k</name>
    <cmt>Улица Высоцкого 3, 98111 Феодосия, Крым&lt;br&gt;PP</cmt>
    <desc>Улица Высоцкого 3, 98111 Феодосия, Крым&lt;br&gt;PP</desc>
  </wpt>
  <wpt lat="45.056020000" lon="35.387805000">
    <ele>0.000000</ele>
    <name>Мечта 0* BB 1.2-2.5k</name>
    <cmt>Улица Федька 54, 95000 Феодосия, Крым&lt;br&gt;PP</cmt>
    <desc>Улица Федька 54, 95000 Феодосия, Крым&lt;br&gt;PP</desc>
  </wpt>
  <wpt lat="45.036885000" lon="35.380893000">
    <ele>0.000000</ele>
    <name>Отель Феодосия 3* BBB 2.9k P-</name>
    <cmt>Улица Пушкина 11, 98100 Феодосия, Крым&lt;br&gt;PP&lt;br&gt;Но есть нычка за домом озаборенная.</cmt>
    <desc>Улица Пушкина 11, 98100 Феодосия, Крым&lt;br&gt;PP&lt;br&gt;Но есть нычка за домом озаборенная.</desc>
  </wpt>
  <wpt lat="43.697169000" lon="40.191572000">
    <ele>0.000000</ele>
    <name>Горный Хрусталь 3* BB 2.5-4k</name>
    <cmt>Фундучный Переулок, 12, Красная Поляна, Россия</cmt>
    <desc>Фундучный Переулок, 12, Красная Поляна, Россия</desc>
  </wpt>
  <wpt lat="43.686095000" lon="40.221645000">
    <ele>0.000000</ele>
    <name>Спа Отель Беларусь +3* BB 2-4k</name>
    <cmt>Посёлок Красная Поляна, улица Калиновая 18, Красная Поляна, Россия, &lt;br&gt;PP, Своя огромная территория с пацаками на входе&lt;br&gt;за 4К Люкс</cmt>
    <desc>Посёлок Красная Поляна, улица Калиновая 18, Красная Поляна, Россия, &lt;br&gt;PP, Своя огромная территория с пацаками на входе&lt;br&gt;за 4К Люкс</desc>
  </wpt>
  <wpt lat="43.685872000" lon="40.199278000">
    <ele>0.000000</ele>
    <name>Гостиница Олимпиа +* BB 3k</name>
    <cmt>Улица Ачишховская 30, Красная Поляна, Россия, &lt;br&gt;PPL (за заборои и откатными воротами)</cmt>
    <desc>Улица Ачишховская 30, Красная Поляна, Россия, &lt;br&gt;PPL (за заборои и откатными воротами)</desc>
  </wpt>
  <wpt lat="43.683734000" lon="40.203090000">
    <ele>0.000000</ele>
    <name>Ом Дом Отель +* BB 4.6k</name>
    <cmt>Комсомольский Переулок 1, Красная Поляна, Россия, &lt;br&gt;PP&lt;br&gt;интересный дизайн</cmt>
    <desc>Комсомольский Переулок 1, Красная Поляна, Россия, &lt;br&gt;PP&lt;br&gt;интересный дизайн</desc>
  </wpt>
  <wpt lat="43.686991000" lon="40.200817000">
    <ele>0.000000</ele>
    <name>Гостевой дом Велья +* BB 1.5-2.5</name>
    <cmt>Улица Заповедная 78, Красная Поляна, Россия, &lt;br&gt;Вроде сбоку есть забор-ворота-внутренняя территория</cmt>
    <desc>Улица Заповедная 78, Красная Поляна, Россия, &lt;br&gt;Вроде сбоку есть забор-ворота-внутренняя территория</desc>
  </wpt>
  <wpt lat="45.044299000" lon="41.970254000">
    <ele>0.000000</ele>
    <name>Гостиница Континент 4* BB 4k</name>
    <cmt>Улица Дзержинского 114, Ставрополь, Россия, &lt;br&gt;Есть какая-то территория с жопки гостиницы, но надо смотреть</cmt>
    <desc>Улица Дзержинского 114, Ставрополь, Россия, &lt;br&gt;Есть какая-то территория с жопки гостиницы, но надо смотреть</desc>
  </wpt>
  <wpt lat="45.077140000" lon="42.014090000">
    <ele>0.000000</ele>
    <name>!Guest House PARTIA +* BB 1.7-2.5</name>
    <cmt>Prigorodnaya Str., 436, Ставрополь, Россия, &lt;br&gt;Частный сектор. Зазаборье</cmt>
    <desc>Prigorodnaya Str., 436, Ставрополь, Россия, &lt;br&gt;Частный сектор. Зазаборье</desc>
  </wpt>
  <wpt lat="45.066428000" lon="42.013658000">
    <ele>0.000000</ele>
    <name>Ре-омтГ Кмпл Онегин +* BB 3.5-4.5</name>
    <cmt>Михайловское шоссе 28, Ставрополь, Россия, &lt;br&gt;вроде есть какое-то зазаборье</cmt>
    <desc>Михайловское шоссе 28, Ставрополь, Россия, &lt;br&gt;вроде есть какое-то зазаборье</desc>
  </wpt>
  <wpt lat="45.032874000" lon="42.006977000">
    <ele>0.000000</ele>
    <name>VIP-отель 2* BB 1.8-3k</name>
    <cmt>Улица серова 462, Ставрополь, Россия, &lt;br&gt;сбоку зашлакбаумье&lt;br&gt;3к - люкс</cmt>
    <desc>Улица серова 462, Ставрополь, Россия, &lt;br&gt;сбоку зашлакбаумье&lt;br&gt;3к - люкс</desc>
  </wpt>
  <wpt lat="45.054352000" lon="41.967460000">
    <ele>0.000000</ele>
    <name>Гостиница Динамо +* BB 1.8-3.5k</name>
    <cmt>Улица Вавилова 40-А, Ставрополь, Россия, &lt;br&gt;формальное незапираемое зазаборье&lt;br&gt;3.5к - люкс</cmt>
    <desc>Улица Вавилова 40-А, Ставрополь, Россия, &lt;br&gt;формальное незапираемое зазаборье&lt;br&gt;3.5к - люкс</desc>
  </wpt>
  <wpt lat="51.669984000" lon="39.186510000">
    <ele>0.000000</ele>
    <name>(X)Премьер-Отель +* BB 2,8-3k</name>
    <cmt>Бакунинский переулок,13, Воронеж, Россия, &lt;br&gt;БЕЗ ПАРКОВКИ&lt;br&gt;3л - люкс</cmt>
    <desc>Бакунинский переулок,13, Воронеж, Россия, &lt;br&gt;БЕЗ ПАРКОВКИ&lt;br&gt;3л - люкс</desc>
  </wpt>
  <wpt lat="51.665522000" lon="39.219164000">
    <ele>0.000000</ele>
    <name>Версаль +* BB 3.5k</name>
    <cmt>Детский переулок 26, Воронеж, Россия, &lt;br&gt;у комплекса есть подземный паркинг, а у отеля - хз</cmt>
    <desc>Детский переулок 26, Воронеж, Россия, &lt;br&gt;у комплекса есть подземный паркинг, а у отеля - хз</desc>
  </wpt>
  <wpt lat="51.667400000" lon="39.208942000">
    <ele>0.000000</ele>
    <name>Дегас + Лайт</name>
    <cmt>Отель Дегас Лайт&lt;br&gt;Улица Пятницкого 65А, подъезд 3</cmt>
    <desc>Отель Дегас Лайт&lt;br&gt;Улица Пятницкого 65А, подъезд 3</desc>
  </wpt>
  <wpt lat="51.678408000" lon="39.212815000">
    <ele>0.000000</ele>
    <name>Бронзовый Кабан 4* BB 3.5-4k</name>
    <cmt>Кольцовская Улица 1Г , Воронеж, Россия, &lt;br&gt;PPL</cmt>
    <desc>Кольцовская Улица 1Г , Воронеж, Россия, &lt;br&gt;PPL</desc>
  </wpt>
  <wpt lat="51.657173000" lon="39.191923000">
    <ele>0.000000</ele>
    <name>Holiday Inn Express 3* BB 3.5-4k</name>
    <cmt>Улица Кирова 9/1, Воронеж, Россия&lt;br&gt;PPL</cmt>
    <desc>Улица Кирова 9/1, Воронеж, Россия&lt;br&gt;PPL</desc>
  </wpt>
  <wpt lat="51.673744000" lon="39.182798000">
    <ele>0.000000</ele>
    <name>Отель Hampton by Hilton 4* BB 3.2-3.7k</name>
    <cmt>Донбасская Улица 12Б, Воронеж, Россия, &lt;br&gt;PP</cmt>
    <desc>Донбасская Улица 12Б, Воронеж, Россия, &lt;br&gt;PP</desc>
  </wpt>
  <wpt lat="51.711809000" lon="39.141624000">
    <ele>0.000000</ele>
    <name>!Токио +* BB 2.8-3.5k</name>
    <cmt>Antonova-Ovseenko Street 25А, Воронеж, Россия, &lt;br&gt;рядом платная автостоянка</cmt>
    <desc>Antonova-Ovseenko Street 25А, Воронеж, Россия, &lt;br&gt;рядом платная автостоянка</desc>
  </wpt>
  <wpt lat="51.732022000" lon="39.177791000">
    <ele>0.000000</ele>
    <name>Амакс Парк Отель 3* BB 3.4k</name>
    <cmt>Московский Проспект 145, Воронеж, Россия, &lt;br&gt;зазаборье с будкой и шлакбаумом</cmt>
    <desc>Московский Проспект 145, Воронеж, Россия, &lt;br&gt;зазаборье с будкой и шлакбаумом</desc>
  </wpt>
  <wpt lat="47.223778000" lon="39.755898000">
    <ele>0.000000</ele>
    <name>!Отель Ани +* BB 3k</name>
    <cmt>Улица 5 Линия 55/84, Ростов-на-Дону, Россия, &lt;br&gt;частный сектор, своя территория</cmt>
    <desc>Улица 5 Линия 55/84, Ростов-на-Дону, Россия, &lt;br&gt;частный сектор, своя территория</desc>
  </wpt>
  <wpt lat="47.233410000" lon="39.690484000">
    <ele>0.000000</ele>
    <name>!Дон Мажор 3* BB 2.5k</name>
    <cmt>улица Козлова 42, Ростов-на-Дону, Россия, &lt;br&gt;ЧС.&lt;br&gt;полулюкс 2,8к</cmt>
    <desc>улица Козлова 42, Ростов-на-Дону, Россия, &lt;br&gt;ЧС.&lt;br&gt;полулюкс 2,8к</desc>
  </wpt>
  <wpt lat="47.204424000" lon="39.766259000">
    <ele>0.000000</ele>
    <name>!Гостиница Аверон +* BB 3.3-4k</name>
    <cmt>Левобережная улица 16, Ростов-на-Дону, Россия, &lt;br&gt;своя территория с конурой и шлакбаумом</cmt>
    <desc>Левобережная улица 16, Ростов-на-Дону, Россия, &lt;br&gt;своя территория с конурой и шлакбаумом</desc>
  </wpt>
  <wpt lat="47.232852000" lon="39.763150000">
    <ele>0.000000</ele>
    <name>Отель Байрон 3* BB 2.2-2.7</name>
    <cmt>Базарная Площадь 4Б, Ростов-на-Дону, Россия, &lt;br&gt;Вроде своя терр.</cmt>
    <desc>Базарная Площадь 4Б, Ростов-на-Дону, Россия, &lt;br&gt;Вроде своя терр.</desc>
  </wpt>
  <wpt lat="47.240339000" lon="39.702578000">
    <ele>0.000000</ele>
    <name>$Гостиница Звезда 3* BB 3.3k</name>
    <cmt>Соборный переулок 104, Ростов-на-Дону, Россия, &lt;br&gt;PPL платная 300р, но хз где и как</cmt>
    <desc>Соборный переулок 104, Ростов-на-Дону, Россия, &lt;br&gt;PPL платная 300р, но хз где и как</desc>
  </wpt>
  <wpt lat="47.222246000" lon="39.739206000">
    <ele>0.000000</ele>
    <name>!Гостевой дом Сказка +* BB 1.9-2.5</name>
    <cmt>Улица Красных Зорь 117, Ростов-на-Дону, Россия, &lt;br&gt;ЧС.&lt;br&gt;2,5 -  полулюкс</cmt>
    <desc>Улица Красных Зорь 117, Ростов-на-Дону, Россия, &lt;br&gt;ЧС.&lt;br&gt;2,5 -  полулюкс</desc>
  </wpt>
  <wpt lat="47.218089000" lon="39.615916000">
    <ele>0.000000</ele>
    <name>?!Гостиница Альфа -* BB 1.3k</name>
    <cmt>Улица Правовая 78/10, Ростов-на-Дону, Россия, &lt;br&gt;ЧС. вроде внутрення территория</cmt>
    <desc>Улица Правовая 78/10, Ростов-на-Дону, Россия, &lt;br&gt;ЧС. вроде внутрення территория</desc>
  </wpt>
  <wpt lat="47.226091000" lon="39.691874000">
    <ele>0.000000</ele>
    <name>!Mart Guest House 0+* ВВ 2-2,5к</name>
    <cmt>Gvardeysky Pereulok 12, Ростов-на-Дону, Россия, &lt;br&gt;ЧС. зазаборье с воротами</cmt>
    <desc>Gvardeysky Pereulok 12, Ростов-на-Дону, Россия, &lt;br&gt;ЧС. зазаборье с воротами</desc>
  </wpt>
  <wpt lat="47.274496000" lon="39.763263000">
    <ele>0.000000</ele>
    <name>Отель Белладжио 4* BB 3.6-4</name>
    <cmt>Улица 50-летия Ростсельмаша 7В, Ростов-на-Дону, Россия, &lt;br&gt;есть какая-то внутр. терр. но хз что</cmt>
    <desc>Улица 50-летия Ростсельмаша 7В, Ростов-на-Дону, Россия, &lt;br&gt;есть какая-то внутр. терр. но хз что</desc>
  </wpt>
  <wpt lat="47.225106000" lon="39.703672000">
    <ele>0.000000</ele>
    <name>Hotel Mister X +* ВВ 2,6к</name>
    <cmt>Улица Максима Горького 89, Ростов-на-Дону, Россия, &lt;br&gt;ЧС закуток</cmt>
    <desc>Улица Максима Горького 89, Ростов-на-Дону, Россия, &lt;br&gt;ЧС закуток</desc>
  </wpt>
  <wpt lat="47.246872000" lon="39.797118000">
    <ele>0.000000</ele>
    <name>Отель Визит 3* ВВ 2-3,5Л</name>
    <cmt>Улица Щедрина 29, Ростов-на-Дону, Россия, &lt;br&gt;неюольшое зазаборье. не совсем для машин. но мот могут и пустить</cmt>
    <desc>Улица Щедрина 29, Ростов-на-Дону, Россия, &lt;br&gt;неюольшое зазаборье. не совсем для машин. но мот могут и пустить</desc>
  </wpt>
  <wpt lat="47.222935000" lon="39.707465000">
    <ele>0.000000</ele>
    <name>Отель Континенталь 3* ВВ 2,7-5</name>
    <cmt>Budenovsky Prospekt 42, Ростов-на-Дону, Россия, &lt;br&gt;вроде парковка за воротами</cmt>
    <desc>Budenovsky Prospekt 42, Ростов-на-Дону, Россия, &lt;br&gt;вроде парковка за воротами</desc>
  </wpt>
  <wpt lat="43.028510000" lon="44.680487000">
    <ele>0.000000</ele>
    <name>Hotel Imperial 4* BB 4.5k</name>
    <cmt>Prospekt Mira 19, Владикавказ, Россия, &lt;br&gt;PPL$ 150rur</cmt>
    <desc>Prospekt Mira 19, Владикавказ, Россия, &lt;br&gt;PPL$ 150rur</desc>
  </wpt>
  <wpt lat="43.026902000" lon="44.674535000">
    <ele>0.000000</ele>
    <name>Гостиница Владикавказ 3* BB 2.8k</name>
    <cmt>Улица Коцоева 75, Владикавказ, Россия, &lt;br&gt;PPL$ (по спутнику фиг че у них есть)</cmt>
    <desc>Улица Коцоева 75, Владикавказ, Россия, &lt;br&gt;PPL$ (по спутнику фиг че у них есть)</desc>
  </wpt>
  <wpt lat="43.037013000" lon="44.688271000">
    <ele>0.000000</ele>
    <name>Кадгарон Отель 0* ВВ 2-4Л</name>
    <cmt>Улица Маркова 20, Владикавказ, Россия, &lt;br&gt;PPL$ 50rur</cmt>
    <desc>Улица Маркова 20, Владикавказ, Россия, &lt;br&gt;PPL$ 50rur</desc>
  </wpt>
  <wpt lat="43.450115000" lon="43.578896000">
    <ele>0.000000</ele>
    <name>Корона 3* BB 2.5-3.5L</name>
    <cmt>Улица Балкарова 6, Нальчик, Россия, &lt;br&gt;PPL. условный закуток</cmt>
    <desc>Улица Балкарова 6, Нальчик, Россия, &lt;br&gt;PPL. условный закуток</desc>
  </wpt>
  <wpt lat="43.474867000" lon="43.599447000">
    <ele>0.000000</ele>
    <name>?ГК Трек 2* B$ 3.1k</name>
    <cmt>Парк Культуры и отдыха, Нальчик, Россия, &lt;br&gt;PPL они в парке - модет огорожены. по снимку не понять</cmt>
    <desc>Парк Культуры и отдыха, Нальчик, Россия, &lt;br&gt;PPL они в парке - модет огорожены. по снимку не понять</desc>
  </wpt>
  <wpt lat="43.466314000" lon="43.585827000">
    <ele>0.000000</ele>
    <name>Спа Отель Синдика 4* BB 4.3</name>
    <cmt>Улица Пирогова 1, Нальчик, Россия, &lt;br&gt;PPL . но надо смотреть</cmt>
    <desc>Улица Пирогова 1, Нальчик, Россия, &lt;br&gt;PPL . но надо смотреть</desc>
  </wpt>
  <wpt lat="43.467939000" lon="43.588187000">
    <ele>0.000000</ele>
    <name>Гранд Кавказ Отель 3* ВВ 3,6</name>
    <cmt>Улица Тарчокова 2, Нальчик, Россия, &lt;br&gt;PPL. своя большая терр</cmt>
    <desc>Улица Тарчокова 2, Нальчик, Россия, &lt;br&gt;PPL. своя большая терр</desc>
  </wpt>
  <wpt lat="43.447325000" lon="43.648242000">
    <ele>0.000000</ele>
    <name>Старый Двор -* BB 2.2-4.3hl</name>
    <cmt>улица Мишидж 55, Нальчик, Россия, &lt;br&gt;PPL</cmt>
    <desc>улица Мишидж 55, Нальчик, Россия, &lt;br&gt;PPL</desc>
  </wpt>
  <wpt lat="43.457923000" lon="43.571034000">
    <ele>0.000000</ele>
    <name>Син Дон 2* BS 4kL</name>
    <cmt>Улица Биттирова 141, Нальчик, Россия, &lt;br&gt;PPL. парковка у домиков</cmt>
    <desc>Улица Биттирова 141, Нальчик, Россия, &lt;br&gt;PPL. парковка у домиков</desc>
  </wpt>
  <wpt lat="52.118223000" lon="39.187739000">
    <ele>0.000000</ele>
    <name>!мотель Русь ?* В? 1,7к</name>
    <cmt>впритык- охраняемая стоянка&lt;br&gt;Телефон: 8-920-405-55-55, 8-920-462-44-44, 8-920-400-75-74Км по трассе: 460GPS долгота: 39.178812GPS широта: 52.103077</cmt>
    <desc>впритык- охраняемая стоянка&lt;br&gt;Телефон: 8-920-405-55-55, 8-920-462-44-44, 8-920-400-75-74Км по трассе: 460GPS долгота: 39.178812GPS широта: 52.103077</desc>
  </wpt>
  <wpt lat="52.618213000" lon="38.497776000">
    <ele>0.000000</ele>
    <name>Гостиница Советская 49 +* BB 2,5к</name>
    <cmt>Улица Советская 49, Елец, Россия, &lt;br&gt;PPL</cmt>
    <desc>Улица Советская 49, Елец, Россия, &lt;br&gt;PPL</desc>
  </wpt>
  <wpt lat="44.038215000" lon="43.079015000">
    <ele>0.000000</ele>
    <name>Пансионат Искра +* B- 2.3-3kL</name>
    <cmt>Улица Карла Маркса 7, Пятигорск, Россия, &lt;br&gt;PPL$ 60rur</cmt>
    <desc>Улица Карла Маркса 7, Пятигорск, Россия, &lt;br&gt;PPL$ 60rur</desc>
  </wpt>
  <wpt lat="52.618344000" lon="38.461448000">
    <ele>0.000000</ele>
    <name>Motel Prival +* BB 2-3kL</name>
    <cmt>2 Концевая 23, Елец, Россия, &lt;br&gt;PPL для гостей. похоче ЧС и зазаборье</cmt>
    <desc>2 Концевая 23, Елец, Россия, &lt;br&gt;PPL для гостей. похоче ЧС и зазаборье</desc>
  </wpt>
  <wpt lat="44.055630000" lon="43.044782000">
    <ele>0.000000</ele>
    <name>?Ночной квартал 3* BB 2-3.7L</name>
    <cmt>ул. Адмиральского, 6&lt;br&gt;есть заворотье, но пустят ли - хз</cmt>
    <desc>ул. Адмиральского, 6&lt;br&gt;есть заворотье, но пустят ли - хз</desc>
  </wpt>
  <wpt lat="44.047726000" lon="43.065188000">
    <ele>0.000000</ele>
    <name>(X)Golden Hotel 4* BB 3k</name>
    <cmt>Улица Калинина 38 cтр. 1, Пятигорск, Россия, &lt;br&gt;парковка уличная</cmt>
    <desc>Улица Калинина 38 cтр. 1, Пятигорск, Россия, &lt;br&gt;парковка уличная</desc>
  </wpt>
  <wpt lat="44.037369000" lon="43.057397000">
    <ele>0.000000</ele>
    <name>Guest house Alla +* B- 1.4</name>
    <cmt>Universitetskaya 55, Пятигорск, Россия, &lt;br&gt;ЧС. Вроде двор есть</cmt>
    <desc>Universitetskaya 55, Пятигорск, Россия, &lt;br&gt;ЧС. Вроде двор есть</desc>
  </wpt>
  <wpt lat="44.022730000" lon="43.088344000">
    <ele>0.000000</ele>
    <name>Hotel-Sauna Liberty +* В120 2,5-3к</name>
    <cmt>улица Воровского 105, Пятигорск, Ставропольский край, Россия</cmt>
    <desc>улица Воровского 105, Пятигорск, Ставропольский край, Россия</desc>
  </wpt>
  <wpt lat="44.033053000" lon="43.079624000">
    <ele>0.000000</ele>
    <name>АпартОтель Комплимент +* B- 3-3.5L</name>
    <cmt>Улица Партизанская 4, Пятигорск, Россия, &lt;br&gt;зазаборье</cmt>
    <desc>Улица Партизанская 4, Пятигорск, Россия, &lt;br&gt;зазаборье</desc>
  </wpt>
  <wpt lat="44.062876000" lon="43.003423000">
    <ele>0.000000</ele>
    <name>(Х)Hayat Spa Hotel 4* 1,9-2,6HL</name>
    <cmt>Бештаугорское шоссе 161, Пятигорск, Россия, &lt;br&gt;нет парковки</cmt>
    <desc>Бештаугорское шоссе 161, Пятигорск, Россия, &lt;br&gt;нет парковки</desc>
  </wpt>
  <wpt lat="44.064092000" lon="43.080134000">
    <ele>0.000000</ele>
    <name>Затерянный Рай у Машука +* BB 4k</name>
    <cmt>гора Машук, Пятигорск, Россия, &lt;br&gt;своя большая территория</cmt>
    <desc>гора Машук, Пятигорск, Россия, &lt;br&gt;своя большая территория</desc>
  </wpt>
  <wpt lat="44.052862000" lon="42.975927000">
    <ele>0.000000</ele>
    <name>ГД Тольятти 0* В150 1,3к</name>
    <cmt>Улица 9-й Переулок 6, Пятигорск, Россия, &lt;br&gt;ЧС. может есть закуток</cmt>
    <desc>Улица 9-й Переулок 6, Пятигорск, Россия, &lt;br&gt;ЧС. может есть закуток</desc>
  </wpt>
  <wpt lat="44.059707000" lon="43.062166000">
    <ele>0.000000</ele>
    <name>Khantama +* ВВ 3,5-4,5</name>
    <cmt>Ulitsa Ordzhonikidze, 11A, Пятигорск, Россия, &lt;br&gt;низкое зазаборье с конурой</cmt>
    <desc>Ulitsa Ordzhonikidze, 11A, Пятигорск, Россия, &lt;br&gt;низкое зазаборье с конурой</desc>
  </wpt>
  <wpt lat="45.002927000" lon="41.127813000">
    <ele>0.000000</ele>
    <name>RHouse Inn +* BB 2-3.5L</name>
    <cmt>Улица Розы Люксембург 130, Армавир, Россия, &lt;br&gt;есть заворотье, но не путят ли?</cmt>
    <desc>Улица Розы Люксембург 130, Армавир, Россия, &lt;br&gt;есть заворотье, но не путят ли?</desc>
  </wpt>
  <wpt lat="44.967800000" lon="41.140848000">
    <ele>0.000000</ele>
    <name>!Panorama +* B- 1.5k</name>
    <cmt>St. Lavrinenko 172а, Армавир, Россия, &lt;br&gt;ЧС. вроде своя территория. вопрос охраны</cmt>
    <desc>St. Lavrinenko 172а, Армавир, Россия, &lt;br&gt;ЧС. вроде своя территория. вопрос охраны</desc>
  </wpt>
  <wpt lat="44.991592000" lon="41.128945000">
    <ele>0.000000</ele>
    <name>Гранд-отель Classic 4* BB 4.2k</name>
    <cmt>Улица Халтурина 108 А , Армавир, Россия, &lt;br&gt;PPL зазаборье, но без ворот</cmt>
    <desc>Улица Халтурина 108 А , Армавир, Россия, &lt;br&gt;PPL зазаборье, но без ворот</desc>
  </wpt>
  <wpt lat="44.992548000" lon="41.136047000">
    <ele>0.000000</ele>
    <name>!Гостиница Вилла Клаб 4* 3,5-4к</name>
    <cmt>Улица Урицкого 83А, Армавир, Россия, &lt;br&gt;зазаборье с закрытыми воротами</cmt>
    <desc>Улица Урицкого 83А, Армавир, Россия, &lt;br&gt;зазаборье с закрытыми воротами</desc>
  </wpt>
  <wpt lat="44.614438000" lon="40.141039000">
    <ele>0.000000</ele>
    <name>Гостиница Версаль +* BB 4.5k</name>
    <cmt>Улица Хакуратэ 5, Майкоп, Россия, &lt;br&gt;внутренний двор, но что с охраной ХЗ</cmt>
    <desc>Улица Хакуратэ 5, Майкоп, Россия, &lt;br&gt;внутренний двор, но что с охраной ХЗ</desc>
  </wpt>
  <wpt lat="44.601396000" lon="40.110446000">
    <ele>0.000000</ele>
    <name>!Мини-гостиница Сияние +* B$ 2k</name>
    <cmt>Ulitsa Gagarina, 26, Майкоп, Россия, &lt;br&gt;ЧС. возможно пустят во внутренний двор</cmt>
    <desc>Ulitsa Gagarina, 26, Майкоп, Россия, &lt;br&gt;ЧС. возможно пустят во внутренний двор</desc>
  </wpt>
  <wpt lat="44.668256000" lon="40.706207000">
    <ele>0.000000</ele>
    <name>Hotel BONS +* B$ 1.7-3.5L</name>
    <cmt>Ulitsa Ladozhskaya 34, Лабинск, Россия, &lt;br&gt;прозрачное зазаборье, но что с охраной хз</cmt>
    <desc>Ulitsa Ladozhskaya 34, Лабинск, Россия, &lt;br&gt;прозрачное зазаборье, но что с охраной хз</desc>
  </wpt>
  <wpt lat="44.144930000" lon="39.035365000">
    <ele>0.000000</ele>
    <name>!Гостевой дом светлана ????</name>
    <cmt>Зазаборье хорошее</cmt>
    <desc>Зазаборье хорошее</desc>
  </wpt>
  <wpt lat="44.096264000" lon="39.079831000">
    <ele>0.000000</ele>
    <name>Русь 2* B- 2.5-3k</name>
    <cmt>прозрачны забор со шлакбаумом и будкой</cmt>
    <desc>прозрачны забор со шлакбаумом и будкой</desc>
  </wpt>
  <wpt lat="44.090731000" lon="39.087907000">
    <ele>0.000000</ele>
    <name>мини-гост «Дженнет» +-* B- 3,6L</name>
    <cmt>ул. 8-го Марта, д. 8, Туапсе, Россия, &lt;br&gt;Хорошее зазаборье.</cmt>
    <desc>ул. 8-го Марта, д. 8, Туапсе, Россия, &lt;br&gt;Хорошее зазаборье.</desc>
  </wpt>
  <wpt lat="44.080052000" lon="39.098936000">
    <ele>0.000000</ele>
    <name>гд Анастасия +* B$ 2.4k</name>
    <cmt>Ключевая ул.11, Туапсе, Россия, &lt;br&gt;ЧС. должно быть что-то&lt;br&gt;Завтрак 150р</cmt>
    <desc>Ключевая ул.11, Туапсе, Россия, &lt;br&gt;ЧС. должно быть что-то&lt;br&gt;Завтрак 150р</desc>
  </wpt>
  <wpt lat="44.085109000" lon="39.087612000">
    <ele>0.000000</ele>
    <name>!ГД Дубовая Роща 0* B- 1.5k</name>
    <cmt>Щедрина 28, Туапсе, Россия, &lt;br&gt;ЧС, прозрачное зазаборье с автомат. воротами</cmt>
    <desc>Щедрина 28, Туапсе, Россия, &lt;br&gt;ЧС, прозрачное зазаборье с автомат. воротами</desc>
  </wpt>
  <wpt lat="44.107633000" lon="39.087604000">
    <ele>0.000000</ele>
    <name>!ГД Amigo +* B- 1.9k</name>
    <cmt>ЧС, глухое зазаборье</cmt>
    <desc>ЧС, глухое зазаборье</desc>
  </wpt>
  <wpt lat="44.110736000" lon="39.059331000">
    <ele>0.000000</ele>
    <name>!ГД Прохлада +-* B- 1.5k</name>
    <cmt>ЧС. суровое зазаборье. Даже  гараж на пару машин есть</cmt>
    <desc>ЧС. суровое зазаборье. Даже  гараж на пару машин есть</desc>
  </wpt>
  <wpt lat="44.108109000" lon="39.087121000">
    <ele>0.000000</ele>
    <name>?ГД Виктория +* B$ 3-4k</name>
    <cmt>Улица Азовская 16, Туапсе, Россия, &lt;br&gt;гараж есть на 0 этаже. если пустят.</cmt>
    <desc>Улица Азовская 16, Туапсе, Россия, &lt;br&gt;гараж есть на 0 этаже. если пустят.</desc>
  </wpt>
  <wpt lat="44.111040000" lon="39.058853000">
    <ele>0.000000</ele>
    <name>ГД Уютный Дворик -* B- 1.5k</name>
    <cmt>ЧС. хз какой</cmt>
    <desc>ЧС. хз какой</desc>
  </wpt>
  <wpt lat="44.107641000" lon="39.063491000">
    <ele>0.000000</ele>
    <name>?ГД Теплый номерок +-* B$ 2.5-2.8k</name>
    <cmt>Улица Кирова 62, Туапсе, Россия, &lt;br&gt;подобие внутр территории. может закрывается</cmt>
    <desc>Улица Кирова 62, Туапсе, Россия, &lt;br&gt;подобие внутр территории. может закрывается</desc>
  </wpt>
  <wpt lat="62.076321900" lon="35.191488900">
    <ele>0.000000</ele>
    <name>ГД Кижская благодать +-* 3,2к
</name>
    <cmt>Тел. +7 (906) 206-06-32; +7 (921) 451-00-81 - Татьяна; +7 (921) 220-84-59 - Юрий Борисович&lt;br&gt;elupov.ru/ru/hotel&lt;br&gt;vk.com/kizhihouse</cmt>
    <desc>Тел. +7 (906) 206-06-32; +7 (921) 451-00-81 - Татьяна; +7 (921) 220-84-59 - Юрий Борисович&lt;br&gt;elupov.ru/ru/hotel&lt;br&gt;vk.com/kizhihouse</desc>
  </wpt>
  <wpt lat="62.250423700" lon="35.040434900">
    <ele>0.000000</ele>
    <name>ГД Заонежье 0* 6к/6
</name>
    <cmt>Два 2х этажных дома на 6 человек каждый.&lt;br&gt;Тел. +7 (921) 016-48-44&lt;br&gt;zaoneje.ru</cmt>
    <desc>Два 2х этажных дома на 6 человек каждый.&lt;br&gt;Тел. +7 (921) 016-48-44&lt;br&gt;zaoneje.ru</desc>
  </wpt>
  <wpt lat="62.210981500" lon="35.121378600">
    <ele>0.000000</ele>
    <name>ГД Крестики-Нолики +-* 7,5кр/4ч</name>
    <cmt>ГД Крестики-Нолики +-* 7,5кр/4ч</cmt>
    <desc>ГД Крестики-Нолики +-* 7,5кр/4ч</desc>
  </wpt>
  <wpt lat="62.914133900" lon="34.509826900">
    <ele>0.000000</ele>
    <name>Малая Медвежка +* B- 3.5k ЧС</name>
    <cmt>Улица Омелина 2, Медвежьегорск, Россия&lt;br&gt;Внешне - прилично. территория своя, но не огорожена толком.</cmt>
    <desc>Улица Омелина 2, Медвежьегорск, Россия&lt;br&gt;Внешне - прилично. территория своя, но не огорожена толком.</desc>
  </wpt>
  <wpt lat="64.446667900" lon="33.954148300">
    <ele>0.000000</ele>
    <name>?Турбаза Шуезеро +* B- 3к PPL</name>
    <cmt>Республику Карелия, Беломорский район, деревня Шуезеро, Шуeзеро, Россия&lt;br&gt;Нет номеров на букинге</cmt>
    <desc>Республику Карелия, Беломорский район, деревня Шуезеро, Шуeзеро, Россия&lt;br&gt;Нет номеров на букинге</desc>
  </wpt>
  <wpt lat="64.527758000" lon="34.778433000">
    <ele>0.000000</ele>
    <name>ГД Старчина 0* B- 3.5k PPL</name>
    <cmt>Ostrov Starchina 38, Беломорск, Россия</cmt>
    <desc>Ostrov Starchina 38, Беломорск, Россия</desc>
  </wpt>
  <wpt lat="67.564972600" lon="33.259951200">
    <ele>0.000000</ele>
    <name>База Отдыха Лесная +-* B- 6k/4 PPL</name>
    <cmt>Подъезд Апатиты, 23 километр., Апатиты, Россия</cmt>
    <desc>Подъезд Апатиты, 23 километр., Апатиты, Россия</desc>
  </wpt>
  <wpt lat="67.563803000" lon="33.434937000">
    <ele>0.000000</ele>
    <name>Сан-ГостК Изовела 0* B$ 2.4k PPL</name>
    <cmt>Улица Победы, 29а, Апатиты, Россия&lt;br&gt;Завтрак 150p</cmt>
    <desc>Улица Победы, 29а, Апатиты, Россия&lt;br&gt;Завтрак 150p</desc>
  </wpt>
  <wpt lat="67.556912400" lon="33.452446500">
    <ele>0.000000</ele>
    <name>ГД Как дома +* BB 3,8-4,8/1-2 PPLZ ЧС</name>
    <cmt>Pr. Sidorenko 29/35, Апатиты, Россия&lt;br&gt;ЧС</cmt>
    <desc>Pr. Sidorenko 29/35, Апатиты, Россия&lt;br&gt;ЧС</desc>
  </wpt>
  <wpt lat="67.614357300" lon="33.661864800">
    <ele>0.000000</ele>
    <name>Северная 3* BB PO 3.7-5.2k/1-2 PO</name>
    <cmt>Проспект Ленина 11, Кировск, Россия</cmt>
    <desc>Проспект Ленина 11, Кировск, Россия</desc>
  </wpt>
  <wpt lat="54.715362300" lon="25.192900300">
    <ele>0.000000</ele>
    <name>~Scandinavian Style House +* 1.6k PPZ ЧС</name>
    <cmt>Место неточное&lt;br&gt;Pilaitės Sodų 4-oji g. 22, LT-6230 Вильнюс, Литва</cmt>
    <desc>Место неточное&lt;br&gt;Pilaitės Sodų 4-oji g. 22, LT-6230 Вильнюс, Литва</desc>
  </wpt>
  <wpt lat="54.656283000" lon="25.197996500">
    <ele>0.000000</ele>
    <name>ГД Roja B- 1,9к PPZ ЧС</name>
    <cmt>Смотреть есть ли душ</cmt>
    <desc>Смотреть есть ли душ</desc>
  </wpt>
  <wpt lat="54.781023200" lon="25.348656200">
    <ele>0.000000</ele>
    <name>ГД Sigis B220р +-* 1.3k PPLZ ЧС</name>
    <cmt>Лайтовое зазаборье.</cmt>
    <desc>Лайтовое зазаборье.</desc>
  </wpt>
  <wpt lat="54.671706200" lon="25.291333700">
    <ele>0.000000</ele>
    <name>Hostel Fortuna --*Р B- 2,1к PPLZ</name>
    <cmt>Раздельные кровати онли. и не двигаемые.&lt;br&gt;Но нормальное глухое зазаборье.</cmt>
    <desc>Раздельные кровати онли. и не двигаемые.&lt;br&gt;Но нормальное глухое зазаборье.</desc>
  </wpt>
  <wpt lat="54.658756000" lon="25.184996000">
    <ele>0.000000</ele>
    <name>Comfort Apartment +* B- 2.2k PPL ЧС</name>
    <cmt>заборчик хлипкий и просматриваемый, но сойдет</cmt>
    <desc>заборчик хлипкий и просматриваемый, но сойдет</desc>
  </wpt>
  <wpt lat="54.710991400" lon="25.416446300">
    <ele>0.000000</ele>
    <name>Modern Castle +-* B$ 2,2к PPA ЧС</name>
    <cmt>Завтрак 250р</cmt>
    <desc>Завтрак 250р</desc>
  </wpt>
  <wpt lat="54.720495100" lon="25.174945100">
    <ele>0.000000</ele>
    <name>ГД Pilaites +* B- 2k 15m PPA ЧС</name>
    <cmt>вообще нет забора даже от тараканов</cmt>
    <desc>вообще нет забора даже от тараканов</desc>
  </wpt>
  <wpt lat="54.674815800" lon="25.282397600">
    <ele>0.000000</ele>
    <name>Guoda Apt +* B- 2-3к/2 18-25m PP</name>
    <cmt>парковка ХЗ, но есть двор и рядом платный паркинг</cmt>
    <desc>парковка ХЗ, но есть двор и рядом платный паркинг</desc>
  </wpt>
  <wpt lat="54.731552300" lon="25.280509900">
    <ele>0.000000</ele>
    <name>Jeruzale 2* B$ 2.1-2.6/2 PPLA 12-30m</name>
    <cmt>B - 246rur&lt;br&gt;Парковка полностью открыта. но есть эрзац гараж и маленькое зазаборье.</cmt>
    <desc>B - 246rur&lt;br&gt;Парковка полностью открыта. но есть эрзац гараж и маленькое зазаборье.</desc>
  </wpt>
  <wpt lat="54.725474000" lon="25.243888000">
    <ele>0.000000</ele>
    <name>A5 Hotel 3* BB 2,2-2,5 PPL ЧС 14-45м</name>
    <cmt>микро поселок. вроде заогороженный</cmt>
    <desc>микро поселок. вроде заогороженный</desc>
  </wpt>
  <wpt lat="54.672401200" lon="25.275349500">
    <ele>0.000000</ele>
    <name>Comfort Hotel LT 3* BB 4.9k PPL$ 19m</name>
    <cmt>отель новый. возможно есть территория за зданием.&lt;br&gt;парковка 7 Евро</cmt>
    <desc>отель новый. возможно есть территория за зданием.&lt;br&gt;парковка 7 Евро</desc>
  </wpt>
  <wpt lat="54.683755900" lon="25.289633800">
    <ele>0.000000</ele>
    <name>Atrium 3* BB 4.8k ?PPL$ 19m</name>
    <cmt>парковка заявлена как частная за 10евро, на карте парковки дворовые. и не ясно закрываемые ли.</cmt>
    <desc>парковка заявлена как частная за 10евро, на карте парковки дворовые. и не ясно закрываемые ли.</desc>
  </wpt>
  <wpt lat="54.687390900" lon="25.284076000">
    <ele>0.000000</ele>
    <name>Tilto 3* BB 4.5k PPL$ 13m</name>
    <cmt>Парковка 5 евро, но непонятно где. может и уличная.</cmt>
    <desc>Парковка 5 евро, но непонятно где. может и уличная.</desc>
  </wpt>
  <wpt lat="54.695472900" lon="25.284870100">
    <ele>0.000000</ele>
    <name>Ecotel 3* BB 4.4 PPL$ 14m</name>
    <cmt>Парковка во дворике за шлакбаумом. без собаки. частично скрывает само здание отеля</cmt>
    <desc>Парковка во дворике за шлакбаумом. без собаки. частично скрывает само здание отеля</desc>
  </wpt>
  <wpt lat="54.680116300" lon="25.277155100">
    <ele>0.000000</ele>
    <name>In astra B&amp;B +* BB 3.1k PPDMГ</name>
    <cmt>Парковка - общественный двор за шлакбаумом. только от глаз и прячет.</cmt>
    <desc>Парковка - общественный двор за шлакбаумом. только от глаз и прячет.</desc>
  </wpt>
  <wpt lat="54.676668900" lon="25.265963600">
    <ele>0.000000</ele>
    <name>! eLoftHotel 3* BB 3.4k PPL 13m</name>
    <cmt>Дворовая территория. охраны нема. смотреть надо</cmt>
    <desc>Дворовая территория. охраны нема. смотреть надо</desc>
  </wpt>
  <wpt lat="54.671975000" lon="25.284711000">
    <ele>0.000000</ele>
    <name>!Panorama 3* B$/B 3,2/3.4к(5k) PPLГS 18m</name>
    <cmt>парковка за забром рабицой и шлакбаумом. с собачатником</cmt>
    <desc>парковка за забром рабицой и шлакбаумом. с собачатником</desc>
  </wpt>
  <wpt lat="54.670757500" lon="25.260622900">
    <ele>0.000000</ele>
    <name>Panas Tadas 3* BB 3.3k PPLZA 30m</name>
    <cmt>Возможно его парковка: с торца здания за автоматическим забором</cmt>
    <desc>Возможно его парковка: с торца здания за автоматическим забором</desc>
  </wpt>
  <wpt lat="54.671927000" lon="25.255766000">
    <ele>0.000000</ele>
    <name>!Zemaites 3* BB 3.1k PPLZT 15m</name>
    <cmt>парковка за отелем за автоматическим забором.</cmt>
    <desc>парковка за отелем за автоматическим забором.</desc>
  </wpt>
  <wpt lat="54.659115000" lon="25.278224000">
    <ele>0.000000</ele>
    <name>!Amicus 3* B$ 2.9k PPLZ</name>
    <cmt>Завтрак 377р&lt;br&gt;Парковка за забором с воротами</cmt>
    <desc>Завтрак 377р&lt;br&gt;Парковка за забором с воротами</desc>
  </wpt>
  <wpt lat="54.728820000" lon="25.256880900">
    <ele>0.000000</ele>
    <name>ГД Vilnus +-* B- 2.9k PPL ЧС 16m</name>
    <cmt>парковка непонятна&lt;br&gt;наличие персонала - тоже</cmt>
    <desc>парковка непонятна&lt;br&gt;наличие персонала - тоже</desc>
  </wpt>
  <wpt lat="56.952657700" lon="24.061684500">
    <ele>0.000000</ele>
    <name>Hotel NB, +* B PZ 3,4-4,5</name>
    <cmt>парковка за забором с воротами</cmt>
    <desc>парковка за забором с воротами</desc>
  </wpt>
  <wpt lat="56.929753000" lon="24.106670000">
    <ele>0.000000</ele>
    <name>Holel Albatros 2.3-3.6 +* B$ PP?</name>
    <cmt>Парковку надо смотреть. есть задний дворик, но не шибко закрывается</cmt>
    <desc>Парковку надо смотреть. есть задний дворик, но не шибко закрывается</desc>
  </wpt>
  <wpt lat="54.730341800" lon="20.519733100">
    <ele>0.000000</ele>
    <name>Обертайх 3,3-3,9 +* B PPZ</name>
    <cmt>закрытая территория</cmt>
    <desc>закрытая территория</desc>
  </wpt>
  <wpt lat="54.717908000" lon="20.506396300">
    <ele>0.000000</ele>
    <name>ГД Орион +-*  B- 2,8-3,5 PPZS</name>
    <cmt>вроде есть забор&lt;br&gt;на территории похоже платная парковка до кучи</cmt>
    <desc>вроде есть забор&lt;br&gt;на территории похоже платная парковка до кучи</desc>
  </wpt>
  <wpt lat="54.733417000" lon="20.517405000">
    <ele>0.000000</ele>
    <name>ГД Татьяна Тургенева +* 2,9-3,7 B- PPZ?</name>
    <cmt>Не факт что Z&lt;br&gt;возможно дом на месте снесенного и на панорамах еще его нет.</cmt>
    <desc>Не факт что Z&lt;br&gt;возможно дом на месте снесенного и на панорамах еще его нет.</desc>
  </wpt>
  <wpt lat="54.730253000" lon="20.521978000">
    <ele>0.000000</ele>
    <name>Вилла Татьяна 0* 2,3 B P?</name>
    <cmt>особо закрытой территории не видно, но возможно есть закрытый закуток, куда можно воткнуть мопед</cmt>
    <desc>особо закрытой территории не видно, но возможно есть закрытый закуток, куда можно воткнуть мопед</desc>
  </wpt>
  <wpt lat="54.744973000" lon="20.527479000">
    <ele>0.000000</ele>
    <name>Котобус 0* B- 2,5 -3,2 PPAZ</name>
    <cmt>Бар, Сауна, Кафе</cmt>
    <desc>Бар, Сауна, Кафе</desc>
  </wpt>
  <wpt lat="54.743031200" lon="20.513586200">
    <ele>0.000000</ele>
    <name>ГД Вотрэ Мизон +* 3,5 B$ PPZ</name>
    <cmt>ГД Вотрэ Мизон +* 3,5 B$ PPZ</cmt>
    <desc>ГД Вотрэ Мизон +* 3,5 B$ PPZ</desc>
  </wpt>
  <wpt lat="54.713207000" lon="20.472328000">
    <ele>0.000000</ele>
    <name>SMILE ГД/хостел 0* B- 1.5k PPLZ ЧС 15m</name>
    <cmt>SMILE ГД/хостел 0* B- 1.5k PPLZ ЧС 15m</cmt>
    <desc>SMILE ГД/хостел 0* B- 1.5k PPLZ ЧС 15m</desc>
  </wpt>
  <wpt lat="54.668917400" lon="20.425156600">
    <ele>0.000000</ele>
    <name>Зеркальный Карп, Трактир +-* B$ 1.3k PPLA 17m</name>
    <cmt>Заборчик-ворота не закрываемые. стоянка кабака. + сам кабак</cmt>
    <desc>Заборчик-ворота не закрываемые. стоянка кабака. + сам кабак</desc>
  </wpt>
  <wpt lat="54.713732400" lon="20.564700400">
    <ele>0.000000</ele>
    <name>~ГД Marian 0* B$ 1.4k PPL ЧС 19m</name>
    <cmt>Завтрак 300р&lt;br&gt;в живую не видел. хз что там&lt;br&gt;Улица Тупиковая 14, Калининград, Россия</cmt>
    <desc>Завтрак 300р&lt;br&gt;в живую не видел. хз что там&lt;br&gt;Улица Тупиковая 14, Калининград, Россия</desc>
  </wpt>
  <wpt lat="54.732534900" lon="20.520486200">
    <ele>0.000000</ele>
    <name>~ГД Nika -* B$ 2k PPL ЧС</name>
    <cmt>st Telmana 14 B, Калининград, Россия&lt;br&gt;Завтрак 200р</cmt>
    <desc>st Telmana 14 B, Калининград, Россия&lt;br&gt;Завтрак 200р</desc>
  </wpt>
  <wpt lat="54.738096300" lon="20.530813900">
    <ele>0.000000</ele>
    <name>Робинзон 0* 1.7-2,5 B$ PPZ 14-25м</name>
    <cmt>закрытое зазаборье&lt;br&gt;завтрак 169 р</cmt>
    <desc>закрытое зазаборье&lt;br&gt;завтрак 169 р</desc>
  </wpt>
  <wpt lat="54.721621000" lon="20.419678000">
    <ele>0.000000</ele>
    <name>Бутик отель Анна 4*+ B$ 5.2kL PPLZ</name>
    <cmt>Завтрак 400р&lt;br&gt;Каменное зазаборье с ролетами.</cmt>
    <desc>Завтрак 400р&lt;br&gt;Каменное зазаборье с ролетами.</desc>
  </wpt>
  <wpt lat="54.738102200" lon="20.461005400">
    <ele>0.000000</ele>
    <name>ГД Slon +* B- 5k PPLZ 18m</name>
    <cmt>прозрачное зазаборье</cmt>
    <desc>прозрачное зазаборье</desc>
  </wpt>
  <wpt lat="54.732107000" lon="20.522631000">
    <ele>0.000000</ele>
    <name>Обертайх-люкс +* BB 4.7k 64м PPLZ</name>
    <cmt>Прозрачнео зазаборье вокруг отеля</cmt>
    <desc>Прозрачнео зазаборье вокруг отеля</desc>
  </wpt>
  <wpt lat="54.723881000" lon="20.490009000">
    <ele>0.000000</ele>
    <name>! Черепаха 3* B$ 4.5k PPLZ ЧС</name>
    <cmt>Хорошее зазаборье&lt;br&gt;Завтрак 300р</cmt>
    <desc>Хорошее зазаборье&lt;br&gt;Завтрак 300р</desc>
  </wpt>
  <wpt lat="54.716251400" lon="20.470707800">
    <ele>0.000000</ele>
    <name>Блюз, Отель</name>
    <cmt>Блюз, Отель</cmt>
    <desc>Блюз, Отель</desc>
  </wpt>
  <wpt lat="54.719870800" lon="20.487160500">
    <ele>0.000000</ele>
    <name>Москва 3--* B$ 3,3к PPL 18m</name>
    <cmt>возможно парковка во дворе есть, но степень запираемости непонятна.&lt;br&gt;завтрак 350р</cmt>
    <desc>возможно парковка во дворе есть, но степень запираемости непонятна.&lt;br&gt;завтрак 350р</desc>
  </wpt>
  <wpt lat="54.709146000" lon="20.506620300">
    <ele>0.000000</ele>
    <name>Ибис 3* B$ 3,2к PPL$ 13м</name>
    <cmt>завтрак 490р&lt;br&gt;парковка 200р&lt;br&gt;парковка непонятна. на панорамах недострой</cmt>
    <desc>завтрак 490р&lt;br&gt;парковка 200р&lt;br&gt;парковка непонятна. на панорамах недострой</desc>
  </wpt>
  <wpt lat="54.705558500" lon="20.542738500">
    <ele>0.000000</ele>
    <name>~RiverSide 3* B$ 3k PPL 18m</name>
    <cmt>большая территория, хз что с парковкой</cmt>
    <desc>большая территория, хз что с парковкой</desc>
  </wpt>
  <wpt lat="54.731843400" lon="20.521360300">
    <ele>0.000000</ele>
    <name>! Вилла Северин +* B- 3k PPLZT</name>
    <cmt>! Вилла Северин +* B- 3k PPLZT</cmt>
    <desc>! Вилла Северин +* B- 3k PPLZT</desc>
  </wpt>
  <wpt lat="54.743412000" lon="20.514221000">
    <ele>0.000000</ele>
    <name>~Votre Maison +* 3k B$ PPL ЧС 23m</name>
    <cmt>завтрак 350р</cmt>
    <desc>завтрак 350р</desc>
  </wpt>
  <wpt lat="54.754148700" lon="20.491148700">
    <ele>0.000000</ele>
    <name>! ГД Ermitazh +-* BB 2.8k PPLZ ЧС</name>
    <cmt>! ГД Ermitazh +-* BB 2.8k PPLZ ЧС</cmt>
    <desc>! ГД Ermitazh +-* BB 2.8k PPLZ ЧС</desc>
  </wpt>
  <wpt lat="54.653034400" lon="20.359782300">
    <ele>0.000000</ele>
    <name>Buen Retiro +* B$ 2.5k ЧС 16м</name>
    <cmt>Дебеня</cmt>
    <desc>Дебеня</desc>
  </wpt>
  <wpt lat="54.712566800" lon="20.464682800">
    <ele>0.000000</ele>
    <name>! ГД На Каштановой +* B$ 2.3k PPLZ ЧС</name>
    <cmt>! ГД На Каштановой +* B$ 2.3k PPLZ ЧС</cmt>
    <desc>! ГД На Каштановой +* B$ 2.3k PPLZ ЧС</desc>
  </wpt>
  <wpt lat="54.732828200" lon="20.554008900">
    <ele>0.000000</ele>
    <name>Академическая +* B- 2,2k PPL 17m</name>
    <cmt>Возможно нет никакой охраны</cmt>
    <desc>Возможно нет никакой охраны</desc>
  </wpt>
  <wpt lat="54.731837300" lon="20.487311100">
    <ele>0.000000</ele>
    <name>Генералъ, Гостевой Дом</name>
    <cmt>Генералъ, Гостевой Дом</cmt>
    <desc>Генералъ, Гостевой Дом</desc>
  </wpt>
  <wpt lat="54.750524300" lon="20.533594800">
    <ele>0.000000</ele>
    <name>Клавдия -* B- 1,9k PPLZ ЧС 12м</name>
    <cmt>Клавдия -* B- 1,9k PPLZ ЧС 12м</cmt>
    <desc>Клавдия -* B- 1,9k PPLZ ЧС 12м</desc>
  </wpt>
  <wpt lat="54.719575000" lon="20.462568900">
    <ele>0.000000</ele>
    <name>ГД У Озера --* B$ 1,8к PPL ЧС 12м</name>
    <cmt>Завтрак 200р&lt;br&gt;легкий заборчик</cmt>
    <desc>Завтрак 200р&lt;br&gt;легкий заборчик</desc>
  </wpt>
  <wpt lat="54.744379400" lon="20.514005700">
    <ele>0.000000</ele>
    <name>ГД Альбертина 0* B$ 1.8k PPLZD 15m</name>
    <cmt>Завтрак 250р</cmt>
    <desc>Завтрак 250р</desc>
  </wpt>
  <wpt lat="57.706519100" lon="27.863303600">
    <ele>0.000000</ele>
    <name>ГK Изборск 2.4-3k BB PPL 16-25m</name>
    <cmt>С парковкой ХЗ территория рядом с отелем, но охрана и заборы - хз</cmt>
    <desc>С парковкой ХЗ территория рядом с отелем, но охрана и заборы - хз</desc>
  </wpt>
  <wpt lat="57.047559000" lon="24.094922700">
    <ele>0.000000</ele>
    <name>~Imperia 24m --* BB 1,2к PPL ЧС</name>
    <cmt>Возможно зазаборье. на панорамах недострой</cmt>
    <desc>Возможно зазаборье. на панорамах недострой</desc>
  </wpt>
  <wpt lat="56.941584900" lon="24.055437200">
    <ele>0.000000</ele>
    <name>Valentina 15 0* B$ 1.5k PPZD 21m
</name>
    <cmt>завтрак 301р&lt;br&gt;парковка во дворике за домом. Норм.&lt;br&gt;Не все номера с удобствами</cmt>
    <desc>завтрак 301р&lt;br&gt;парковка во дворике за домом. Норм.&lt;br&gt;Не все номера с удобствами</desc>
  </wpt>
  <wpt lat="56.961460300" lon="24.110275500">
    <ele>0.000000</ele>
    <name>ГД Jakob Lenz 2* BB 2.1k PPL$DM 17m</name>
    <cmt>Парковка в общедомовом дворе. степень охранности - хз&lt;br&gt;Не все номера с сортиром</cmt>
    <desc>Парковка в общедомовом дворе. степень охранности - хз&lt;br&gt;Не все номера с сортиром</desc>
  </wpt>
  <wpt lat="56.952245000" lon="24.131530100">
    <ele>0.000000</ele>
    <name>?! RigaApartment +-* B$ 2к PPLDM 27m</name>
    <cmt>Муниципальный двор с воротами. степень охраняемости хз&lt;br&gt;Не все номера отвечают стандартам изысканности (бездушные)&lt;br&gt;Смотреть начиная со Студий</cmt>
    <desc>Муниципальный двор с воротами. степень охраняемости хз&lt;br&gt;Не все номера отвечают стандартам изысканности (бездушные)&lt;br&gt;Смотреть начиная со Студий</desc>
  </wpt>
  <wpt lat="56.939129400" lon="24.141190100">
    <ele>0.000000</ele>
    <name>Dodo 3* B- 2k PPL PPN$? 12m</name>
    <cmt>Поставить можно в задомье, но оно хоть и огорожено, но от несунов не защищает и просматривается</cmt>
    <desc>Поставить можно в задомье, но оно хоть и огорожено, но от несунов не защищает и просматривается</desc>
  </wpt>
  <wpt lat="56.960525200" lon="24.151433500">
    <ele>0.000000</ele>
    <name>! Baltpark 3* BB 2k PPLD 24м</name>
    <cmt>Двор зания отеля. открыт, но не просматривается</cmt>
    <desc>Двор зания отеля. открыт, но не просматривается</desc>
  </wpt>
  <wpt lat="56.941694900" lon="24.146726300">
    <ele>0.000000</ele>
    <name>! (BLD) Sauna +-* B- 2k PPLZ 24m</name>
    <cmt>Хороший забор. но сауна со всеми вытекающими ахами и стонами</cmt>
    <desc>Хороший забор. но сауна со всеми вытекающими ахами и стонами</desc>
  </wpt>
  <wpt lat="56.941086800" lon="24.131727200">
    <ele>0.000000</ele>
    <name>Riverside +-* B$ 2.1k PL$ 16м</name>
    <cmt>парковка охраняемая с собакой прямо напротив.&lt;br&gt;Завтрак 6 евро</cmt>
    <desc>парковка охраняемая с собакой прямо напротив.&lt;br&gt;Завтрак 6 евро</desc>
  </wpt>
  <wpt lat="56.916935400" lon="24.085701400">
    <ele>0.000000</ele>
    <name>Best 3* B$ 2k PPL 15m</name>
    <cmt>Завтра 5 евро&lt;br&gt;Есть заоотелье. возможно там паркинг. безопасноть - хз</cmt>
    <desc>Завтра 5 евро&lt;br&gt;Есть заоотелье. возможно там паркинг. безопасноть - хз</desc>
  </wpt>
  <wpt lat="56.957014300" lon="24.137496000">
    <ele>0.000000</ele>
    <name>Rafael 3* B$ 2.1k PPLMD 15m</name>
    <cmt>Завтрак 5 евро&lt;br&gt;Есть въезд во двор. муниципальный</cmt>
    <desc>Завтрак 5 евро&lt;br&gt;Есть въезд во двор. муниципальный</desc>
  </wpt>
  <wpt lat="56.954617700" lon="24.132861500">
    <ele>0.000000</ele>
    <name>Viktorija 3* BB 2.1k PPLDM 20m</name>
    <cmt>Общий двор с жилыми домами</cmt>
    <desc>Общий двор с жилыми домами</desc>
  </wpt>
  <wpt lat="56.988405900" lon="24.230734900">
    <ele>0.000000</ele>
    <name>Miraza -* B- 2.2k PPL 16m</name>
    <cmt>Возможно за большим забором впритык к отелю</cmt>
    <desc>Возможно за большим забором впритык к отелю</desc>
  </wpt>
  <wpt lat="56.951178300" lon="24.084149900">
    <ele>0.000000</ele>
    <name>Islande 4* BB 5.4k PPLГАD 20m</name>
    <cmt>Полностью открытая, но с собаками в кол-ве 2 шт</cmt>
    <desc>Полностью открытая, но с собаками в кол-ве 2 шт</desc>
  </wpt>
  <wpt lat="56.951435700" lon="24.019724600">
    <ele>0.000000</ele>
    <name>ГД с сауной и бассейном 0* B$4.8k PPLZ ЧС 25м</name>
    <cmt>Завтрак 8 евро</cmt>
    <desc>Завтрак 8 евро</desc>
  </wpt>
  <wpt lat="56.943920100" lon="24.094125800">
    <ele>0.000000</ele>
    <name>Radisson Blu Daugava 4* B$12e 4.8k PГZ</name>
    <cmt>Парковка без собак на отшибе. озаборенная простеньким забором</cmt>
    <desc>Парковка без собак на отшибе. озаборенная простеньким забором</desc>
  </wpt>