<?xml version="1.0" encoding="UTF-8"?>
<kml xmlns="http://www.opengis.net/kml/2.2">
  <Document>
    <name>LO Lakes</name>
    <Style id="icon-503-DB4436-nodesc-normal">
      <IconStyle>
        <color>ff3644db</color>
        <scale>1.1</scale>
        <Icon>
          <href>https://www.gstatic.com/mapspro/images/stock/503-wht-blank_maps.png</href>
        </Icon>
        <hotSpot x="16" xunits="pixels" y="32" yunits="insetPixels"/>
      </IconStyle>
      <LabelStyle>
        <scale>0</scale>
      </LabelStyle>
      <BalloonStyle>
        <text><![CDATA[<h3>$[name]</h3>]]></text>
      </BalloonStyle>
    </Style>
    <Style id="icon-503-DB4436-nodesc-highlight">
      <IconStyle>
        <color>ff3644db</color>
        <scale>1.1</scale>
        <Icon>
          <href>https://www.gstatic.com/mapspro/images/stock/503-wht-blank_maps.png</href>
        </Icon>
        <hotSpot x="16" xunits="pixels" y="32" yunits="insetPixels"/>
      </IconStyle>
      <LabelStyle>
        <scale>1.1</scale>
      </LabelStyle>
      <BalloonStyle>
        <text><![CDATA[<h3>$[name]</h3>]]></text>
      </BalloonStyle>
    </Style>
    <StyleMap id="icon-503-DB4436-nodesc">
      <Pair>
        <key>normal</key>
        <styleUrl>#icon-503-DB4436-nodesc-normal</styleUrl>
      </Pair>
      <Pair>
        <key>highlight</key>
        <styleUrl>#icon-503-DB4436-nodesc-highlight</styleUrl>
      </Pair>
    </StyleMap>
    <Style id="line-F4EB37-9719-nodesc-normal">
      <LineStyle>
        <color>ff37ebf4</color>
        <width>9.719</width>
      </LineStyle>
      <BalloonStyle>
        <text><![CDATA[<h3>$[name]</h3>]]></text>
      </BalloonStyle>
    </Style>
    <Style id="line-F4EB37-9719-nodesc-highlight">
      <LineStyle>
        <color>ff37ebf4</color>
        <width>14.5785</width>
      </LineStyle>
      <BalloonStyle>
        <text><![CDATA[<h3>$[name]</h3>]]></text>
      </BalloonStyle>
    </Style>
    <StyleMap id="line-F4EB37-9719-nodesc">
      <Pair>
        <key>normal</key>
        <styleUrl>#line-F4EB37-9719-nodesc-normal</styleUrl>
      </Pair>
      <Pair>
        <key>highlight</key>
        <styleUrl>#line-F4EB37-9719-nodesc-highlight</styleUrl>
      </Pair>
    </StyleMap>
    <Placemark>
      <name>Точка 1</name>
      <styleUrl>#icon-503-DB4436-nodesc</styleUrl>
      <Point>
        <coordinates>
          30.5292604,60.1099311,0
        </coordinates>
      </Point>
    </Placemark>
    <Placemark>
      <name>Школьное</name>
      <styleUrl>#icon-503-DB4436-nodesc</styleUrl>
      <Point>
        <coordinates>
          30.5958804,60.143084,0
        </coordinates>
      </Point>
    </Placemark>
    <Placemark>
      <name>Пруд</name>
      <styleUrl>#icon-503-DB4436-nodesc</styleUrl>
      <Point>
        <coordinates>
          30.5512805,60.1337255,0
        </coordinates>
      </Point>
    </Placemark>
    <Placemark>
      <name>озеро Лайдака</name>
      <styleUrl>#icon-503-DB4436-nodesc</styleUrl>
      <Point>
        <coordinates>
          30.5636404,60.2015476,0
        </coordinates>
      </Point>
    </Placemark>
    <Placemark>
      <name>Lassylampi</name>
      <styleUrl>#icon-503-DB4436-nodesc</styleUrl>
      <Point>
        <coordinates>
          30.5694807,60.2174371,0
        </coordinates>
      </Point>
    </Placemark>
    <Placemark>
      <name>ТунуксенЯрви</name>
      <styleUrl>#icon-503-DB4436-nodesc</styleUrl>
      <Point>
        <coordinates>
          30.5722931,60.2528849,0
        </coordinates>
      </Point>
    </Placemark>
    <Placemark>
      <name>Мадалаярви</name>
      <styleUrl>#icon-503-DB4436-nodesc</styleUrl>
      <Point>
        <coordinates>
          30.5193252,60.2396877,0
        </coordinates>
      </Point>
    </Placemark>
    <Placemark>
      <name>Валкиярви Озеро</name>
      <styleUrl>#icon-503-DB4436-nodesc</styleUrl>
      <Point>
        <coordinates>
          30.5497848,60.2534154,0
        </coordinates>
      </Point>
    </Placemark>
    <Placemark>
      <name>Точка 7</name>
      <styleUrl>#icon-503-DB4436-nodesc</styleUrl>
      <Point>
        <coordinates>
          30.5200737,60.3399203,0
        </coordinates>
      </Point>
    </Placemark>
    <Placemark>
      <name>Большое</name>
      <styleUrl>#icon-503-DB4436-nodesc</styleUrl>
      <Point>
        <coordinates>
          30.6398285,60.062313,0
        </coordinates>
      </Point>
    </Placemark>
    <Placemark>
      <name>Точка 9</name>
      <styleUrl>#icon-503-DB4436-nodesc</styleUrl>
      <Point>
        <coordinates>
          30.6162759,60.0523419,0
        </coordinates>
      </Point>
    </Placemark>
    <Placemark>
      <name>Сарженское</name>
      <styleUrl>#icon-503-DB4436-nodesc</styleUrl>
      <Point>
        <coordinates>
          30.182775,60.2092972,0
        </coordinates>
      </Point>
    </Placemark>
    <Placemark>
      <name>Медное</name>
      <styleUrl>#icon-503-DB4436-nodesc</styleUrl>
      <Point>
        <coordinates>
          30.1356823,60.2030453,0
        </coordinates>
      </Point>
    </Placemark>
    <Placemark>
      <name>паскояярви озеро</name>
      <styleUrl>#icon-503-DB4436-nodesc</styleUrl>
      <Point>
        <coordinates>
          30.4648987,60.3784298,0
        </coordinates>
      </Point>
    </Placemark>
    <Placemark>
      <name>озеро Сиркиярви</name>
      <styleUrl>#icon-503-DB4436-nodesc</styleUrl>
      <Point>
        <coordinates>
          30.4558805,60.3889783,0
        </coordinates>
      </Point>
    </Placemark>
    <Placemark>
      <name>Банное Озеро</name>
      <styleUrl>#icon-503-DB4436-nodesc</styleUrl>
      <Point>
        <coordinates>
          30.4395777,60.3752674,0
        </coordinates>
      </Point>
    </Placemark>
    <Placemark>
      <name>Точка 12</name>
      <styleUrl>#icon-503-DB4436-nodesc</styleUrl>
      <Point>
        <coordinates>
          30.2572994,60.3805041,0
        </coordinates>
      </Point>
    </Placemark>
    <Placemark>
      <name>Ветреное</name>
      <styleUrl>#icon-503-DB4436-nodesc</styleUrl>
      <Point>
        <coordinates>
          30.3554394,60.4879493,0
        </coordinates>
      </Point>
    </Placemark>
    <Placemark>
      <name>Точка 13</name>
      <styleUrl>#icon-503-DB4436-nodesc</styleUrl>
      <Point>
        <coordinates>
          30.3523785,60.5374475,0
        </coordinates>
      </Point>
    </Placemark>
    <Placemark>
      <name>Точка 14</name>
      <styleUrl>#icon-503-DB4436-nodesc</styleUrl>
      <Point>
        <coordinates>
          30.3536499,60.5337291,0
        </coordinates>
      </Point>
    </Placemark>
    <Placemark>
      <name>Точка 15</name>
      <styleUrl>#icon-503-DB4436-nodesc</styleUrl>
      <Point>
        <coordinates>
          30.356729,60.5322882,0
        </coordinates>
      </Point>
    </Placemark>
    <Placemark>
      <name>Щучье</name>
      <styleUrl>#icon-503-DB4436-nodesc</styleUrl>
      <Point>
        <coordinates>
          30.3272305,60.5255706,0
        </coordinates>
      </Point>
    </Placemark>
    <Placemark>
      <name>Точка 17</name>
      <styleUrl>#icon-503-DB4436-nodesc</styleUrl>
      <Point>
        <coordinates>
          30.3585156,60.504108,0
        </coordinates>
      </Point>
    </Placemark>
    <Placemark>
      <name>Оленье</name>
      <styleUrl>#icon-503-DB4436-nodesc</styleUrl>
      <Point>
        <coordinates>
          30.452163,60.4586903,0
        </coordinates>
      </Point>
    </Placemark>
    <Placemark>
      <name>Забытое</name>
      <styleUrl>#icon-503-DB4436-nodesc</styleUrl>
      <Point>
        <coordinates>
          30.4281374,60.4767745,0
        </coordinates>
      </Point>
    </Placemark>
    <Placemark>
      <name>Пулконлампи</name>
      <styleUrl>#icon-503-DB4436-nodesc</styleUrl>
      <Point>
        <coordinates>
          30.4119972,60.4829946,0
        </coordinates>
      </Point>
    </Placemark>
    <Placemark>
      <name>Точка 20</name>
      <styleUrl>#icon-503-DB4436-nodesc</styleUrl>
      <Point>
        <coordinates>
          30.4165887,60.504915,0
        </coordinates>
      </Point>
    </Placemark>
    <Placemark>
      <name>Точка 21</name>
      <styleUrl>#icon-503-DB4436-nodesc</styleUrl>
      <Point>
        <coordinates>
          30.4726428,60.5171002,0
        </coordinates>
      </Point>
    </Placemark>
    <Placemark>
      <name>Точка 22</name>
      <styleUrl>#icon-503-DB4436-nodesc</styleUrl>
      <Point>
        <coordinates>
          30.4775255,60.5147106,0
        </coordinates>
      </Point>
    </Placemark>
    <Placemark>
      <name>Глубокое</name>
      <styleUrl>#icon-503-DB4436-nodesc</styleUrl>
      <Point>
        <coordinates>
          29.2713529,60.5504694,0
        </coordinates>
      </Point>
    </Placemark>
    <Placemark>
      <name>Гавриловское</name>
      <styleUrl>#icon-503-DB4436-nodesc</styleUrl>
      <Point>
        <coordinates>
          29.0634206,60.6660002,0
        </coordinates>
      </Point>
    </Placemark>
    <Placemark>
      <name>! Чернь</name>
      <styleUrl>#icon-503-DB4436-nodesc</styleUrl>
      <Point>
        <coordinates>
          29.0268835,60.6166871,0
        </coordinates>
      </Point>
    </Placemark>
    <Placemark>
      <name>Почтовое</name>
      <styleUrl>#icon-503-DB4436-nodesc</styleUrl>
      <Point>
        <coordinates>
          29.044103,60.6024626,0
        </coordinates>
      </Point>
    </Placemark>
    <Placemark>
      <name>Гачье</name>
      <styleUrl>#icon-503-DB4436-nodesc</styleUrl>
      <Point>
        <coordinates>
          29.0989534,60.6214586,0
        </coordinates>
      </Point>
    </Placemark>
    <Placemark>
      <name>Высокинское</name>
      <styleUrl>#icon-503-DB4436-nodesc</styleUrl>
      <Point>
        <coordinates>
          28.892461,60.3065669,0
        </coordinates>
      </Point>
    </Placemark>
    <Placemark>
      <name>Точка 29</name>
      <styleUrl>#icon-503-DB4436-nodesc</styleUrl>
      <Point>
        <coordinates>
          29.0362829,60.2901733,0
        </coordinates>
      </Point>
    </Placemark>
    <Placemark>
      <name>Невское</name>
      <styleUrl>#icon-503-DB4436-nodesc</styleUrl>
      <Point>
        <coordinates>
          29.0758664,60.2619113,0
        </coordinates>
      </Point>
    </Placemark>
    <Placemark>
      <name>Веселое</name>
      <styleUrl>#icon-503-DB4436-nodesc</styleUrl>
      <Point>
        <coordinates>
          29.1263742,60.2600173,0
        </coordinates>
      </Point>
    </Placemark>
    <Placemark>
      <name>Белянское</name>
      <styleUrl>#icon-503-DB4436-nodesc</styleUrl>
      <Point>
        <coordinates>
          29.1419954,60.2616777,0
        </coordinates>
      </Point>
    </Placemark>
    <Placemark>
      <name>Зеркальное</name>
      <styleUrl>#icon-503-DB4436-nodesc</styleUrl>
      <Point>
        <coordinates>
          29.1494841,60.2359201,0
        </coordinates>
      </Point>
    </Placemark>
    <Placemark>
      <name>Линия 34</name>
      <styleUrl>#line-F4EB37-9719-nodesc</styleUrl>
      <LineString>
        <tessellate>1</tessellate>
        <coordinates>
          29.1501171,60.2367137,0
          29.1501385,60.2381837,0
          29.1499132,60.2390198,0
          29.1504068,60.2403565,0
          29.1512651,60.240495,0
          29.1529173,60.2406334,0
          29.1539795,60.2407878,0
          29.1549236,60.240937,0
          29.1562325,60.2409476,0
        </coordinates>
      </LineString>
    </Placemark>
    <Placemark>
      <name>Зеркальное</name>
      <styleUrl>#icon-503-DB4436-nodesc</styleUrl>
      <Point>
        <coordinates>
          29.1193039,60.2340346,0
        </coordinates>
      </Point>
    </Placemark>
    <Placemark>
      <name>Точка 36</name>
      <styleUrl>#icon-503-DB4436-nodesc</styleUrl>
      <Point>
        <coordinates>
          29.148143,60.2193944,0
        </coordinates>
      </Point>
    </Placemark>
    <Placemark>
      <name>Точка 37</name>
      <styleUrl>#icon-503-DB4436-nodesc</styleUrl>
      <Point>
        <coordinates>
          29.1615111,60.2153549,0
        </coordinates>
      </Point>
    </Placemark>
    <Placemark>
      <name>Точка 38</name>
      <styleUrl>#icon-503-DB4436-nodesc</styleUrl>
      <Point>
        <coordinates>
          29.1409761,60.2145128,0
        </coordinates>
      </Point>
    </Placemark>
    <Placemark>
      <name>Озеро Плетневое</name>
      <styleUrl>#icon-503-DB4436-nodesc</styleUrl>
      <Point>
        <coordinates>
          29.1291635,60.2059586,0
        </coordinates>
      </Point>
    </Placemark>
    <Placemark>
      <name>Комонь</name>
      <styleUrl>#icon-503-DB4436-nodesc</styleUrl>
      <Point>
        <coordinates>
          29.1638857,60.1971262,0
        </coordinates>
      </Point>
    </Placemark>
    <Placemark>
      <name>Блесна</name>
      <styleUrl>#icon-503-DB4436-nodesc</styleUrl>
      <Point>
        <coordinates>
          29.1795527,60.2026102,0
        </coordinates>
      </Point>
    </Placemark>
    <Placemark>
      <name>Приветное</name>
      <styleUrl>#icon-503-DB4436-nodesc</styleUrl>
      <Point>
        <coordinates>
          29.1899897,60.2062577,0
        </coordinates>
      </Point>
    </Placemark>
    <Placemark>
      <name>Гладывевское</name>
      <styleUrl>#icon-503-DB4436-nodesc</styleUrl>
      <Point>
        <coordinates>
          29.3471358,60.292505,0
        </coordinates>
      </Point>
    </Placemark>
    <Placemark>
      <name>Гладышевское</name>
      <styleUrl>#icon-503-DB4436-nodesc</styleUrl>
      <Point>
        <coordinates>
          29.3849278,60.2865927,0
        </coordinates>
      </Point>
    </Placemark>
  </Document>
</kml>
